{
  "version": 0.6,
  "generator": "Overpass API 0.7.55.5 2ca3f387",
  "osm3s": {
    "timestamp_osm_base": "2019-02-14T12:13:02Z",
    "copyright": "The data included in this document is from www.openstreetmap.org. The data is made available under ODbL."
  },
  "elements": [
    {
      "type": "node",
      "id": 33210865,
      "lat": 63.437903,
      "lon": 10.439795,
      "tags": {
        "amenity": "fuel",
        "branch": "Innherredsveien",
        "brand": "Circle K",
        "car_wash": "yes",
        "compressed_air": "yes",
        "email": "52642@circlekeurope.com",
        "fuel:HGV_diesel": "yes",
        "fuel:diesel": "yes",
        "fuel:octane_95": "yes",
        "fuel:propane": "yes",
        "hgv": "yes",
        "name": "Circle K Innherredsveien",
        "opening_hours": "Mo-Fr 06:00-23:00, Sa 08:00-23:00, Su 09:00-23:00",
        "phone": "+4773534255",
        "ref:circlek": "52642",
        "shop": "yes",
        "website": "https://www.circlek.no/no_NO/pg1334073767171/st1/S%C3%B8kstasjonbedrift.html?stationid=52642&countryid=no"
      }
    },
    {
      "type": "node",
      "id": 130124205,
      "lat": 63.4364665,
      "lon": 10.4317911,
      "tags": {
        "amenity": "fuel",
        "branch": "Rosendal",
        "brand": "YX 7-Eleven",
        "email": "rosendal.711no7506@7-eleven.no",
        "fuel:diesel": "yes",
        "fuel:octane_95": "yes",
        "name": "YX Rosendal",
        "opening_hours": "24/7",
        "phone": "+47 73526175",
        "ref:7eleven": "380",
        "ref:yx": "10417506",
        "shop": "yes"
      }
    },
    {
      "type": "node",
      "id": 148322126,
      "lat": 63.409949,
      "lon": 10.4389259,
      "tags": {
        "branch": "Moholt",
        "brand": "Rema 1000",
        "email": "moholt@rema.no",
        "name": "Rema 1000 Moholt",
        "opening_hours": "Mo-Sa 07:00-23:00",
        "operator": "REMA 1000",
        "phone": "+47 73 82 27 00",
        "ref:rema": "422167",
        "shop": "supermarket",
        "wheelchair": "yes"
      }
    },
    {
      "type": "node",
      "id": 153063289,
      "lat": 63.430183,
      "lon": 10.390648,
      "tags": {
        "branch": "Leuthenhaven",
        "brand": "Extra",
        "email": "leuthenhaven.extra@coop.no",
        "name": "Extra Leuthenhaven",
        "opening_hours": "Mo-Fr 07:00-23:00, Sa 08:00-22:00, Su 10:00-22:00",
        "phone": "+47 73512457",
        "ref:coop": "4632",
        "service:posten": "yes",
        "shop": "supermarket",
        "wheelchair": "yes"
      }
    },
    {
      "type": "node",
      "id": 155590469,
      "lat": 63.422227,
      "lon": 10.399218,
      "tags": {
        "branch": "Samfundet",
        "brand": "Bunnpris",
        "email": "bpsamfundet@bunnpris.no",
        "name": "Bunnpris Samfundet",
        "opening_hours": "Mo-Fr 08:00-23:00, Sa 09:00-21:00",
        "phone": "+47 73524370",
        "ref:bunnpris": "28",
        "service:postnord": "yes",
        "shop": "supermarket",
        "website": "https://bunnpris.no/butikker/bunnpris-samfundet"
      }
    },
    {
      "type": "node",
      "id": 156555237,
      "lat": 63.4133408,
      "lon": 10.4139674,
      "tags": {
        "branch": "Lerkendal",
        "brand": "Bunnpris",
        "email": "bplerkendal@bunnpris.no",
        "name": "Bunnpris Lerkendal",
        "opening_hours": "Mo-Fr 08:00-23:00, Sa 09:00-21:00",
        "phone": "+47 73945867",
        "ref:bunnpris": "19",
        "service:posten": "yes",
        "service:postnord": "yes",
        "service:tipping": "yes",
        "shop": "supermarket",
        "wheelchair": "yes"
      }
    },
    {
      "type": "node",
      "id": 168842710,
      "lat": 63.4097165,
      "lon": 10.4439421,
      "tags": {
        "branch": "Moholt",
        "brand": "Meny",
        "email": "butikksjef.moholt@meny.no",
        "name": "Meny Moholt",
        "opening_hours": "Mo-Fr 08:00-22:00, Sa 08:00-20:00",
        "phone": "+47 73820200",
        "ref:norgesgruppen": "1271947",
        "service:rikstoto": "yes",
        "service:tipping": "yes",
        "shop": "supermarket"
      }
    },
    {
      "type": "node",
      "id": 168842713,
      "lat": 63.412733,
      "lon": 10.431544,
      "tags": {
        "branch": "Moholt",
        "brand": "Bunnpris",
        "email": "bpmoholt@bunnpris.no",
        "name": "Bunnpris Moholt",
        "opening_hours": "Mo-Fr 08:00-23:00, Sa 09:00-21:00, Su 10:00-22:00",
        "phone": "+47 73943070;+47 41617610",
        "ref:bunnpris": "21",
        "service:posten": "yes",
        "shop": "supermarket"
      }
    },
    {
      "type": "node",
      "id": 175870526,
      "lat": 63.402878,
      "lon": 10.42728,
      "tags": {
        "branch": "Nardo",
        "brand": "Coop Mega",
        "email": "nardo.mega@coop.no",
        "name": "Coop Mega Nardo",
        "opening_hours": "Mo-Fr 08:00-23:00, Sa 09:00-21:00",
        "phone": "+47 73942520",
        "ref:coop": "4365",
        "service:posten": "yes",
        "shop": "supermarket",
        "wheelchair": "yes"
      }
    },
    {
      "type": "node",
      "id": 177412743,
      "lat": 63.4341246,
      "lon": 10.4630692,
      "tags": {
        "amenity": "fuel",
        "branch": "Leangen",
        "brand": "YX 7-Eleven",
        "email": "leangen.711no7504@7-eleven.no",
        "fuel:diesel": "yes",
        "fuel:octane_95": "yes",
        "fuel:taxfree_diesel": "yes",
        "name": "YX Leangen",
        "opening_hours": "Mo-Fr 06:00-23:00, Sa-Su 08:00-23:00",
        "phone": "+47 73918152",
        "ref:7eleven": "378",
        "ref:yx": "10417504",
        "shop": "yes"
      }
    },
    {
      "type": "node",
      "id": 192644629,
      "lat": 63.3673403,
      "lon": 10.3744066,
      "tags": {
        "amenity": "fuel",
        "branch": "Rosten",
        "brand": "YX 7-Eleven",
        "email": "rosten.711no7507@7-eleven.no",
        "fuel:diesel": "yes",
        "fuel:octane_95": "yes",
        "name": "YX Rosten",
        "opening_hours": "Mo-Fr 06:00-23:00, Sa 09:00-23:00, Su 10:00-23:00",
        "phone": "+47 72885366",
        "ref:7eleven": "381",
        "ref:yx": "10417507",
        "shop": "yes"
      }
    },
    {
      "type": "node",
      "id": 193629076,
      "lat": 63.3873953,
      "lon": 10.3302931,
      "tags": {
        "branch": "Stavset",
        "brand": "Rema 1000",
        "email": "stavset@rema.no",
        "name": "Rema 1000 Stavset",
        "opening_hours": "Mo-Sa 07:00-23:00",
        "operator": "REMA 1000",
        "phone": "+47 72 56 00 10",
        "ref:rema": "179520",
        "service:posten": "yes",
        "shop": "supermarket",
        "wheelchair": "yes"
      }
    },
    {
      "type": "node",
      "id": 210259349,
      "lat": 63.4215267,
      "lon": 10.5266331,
      "tags": {
        "branch": "Olderdalen",
        "brand": "Coop Prix",
        "email": "coop.prix.olderdalen@coopmidtnorge.no",
        "name": "Coop Prix Olderdalen",
        "opening_hours": "Mo-Fr 07:00-23:00, Sa 08:00-21:00",
        "phone": "+47 40001231",
        "ref:coop": "1808",
        "service:tipping": "yes",
        "shop": "supermarket",
        "website": "http://www.trondos.no/trondos/butikker/prix/olderdalen.php"
      }
    },
    {
      "type": "node",
      "id": 211168452,
      "lat": 63.4211046,
      "lon": 10.5344832,
      "tags": {
        "branch": "Ranheim",
        "brand": "Rema 1000",
        "email": "ranheim@rema.no",
        "name": "Rema 1000 Ranheim",
        "opening_hours": "Mo-Sa 07:00-23:00",
        "phone": "+47 73 57 02 30",
        "ref:rema": "946143",
        "shop": "supermarket"
      }
    },
    {
      "type": "node",
      "id": 220636585,
      "lat": 63.4103851,
      "lon": 10.4414846,
      "tags": {
        "branch": "Moholt",
        "brand": "Kiwi",
        "email": "kiwi.moholt@kiwi.no",
        "name": "Kiwi Moholt",
        "opening_hours": "Mo-Sa 07:00-23:00, Su 10:00-22:00",
        "phone": "+47 73 94 30 52",
        "ref:norgesgruppen": "1097530",
        "shop": "supermarket",
        "wheelchair": "yes"
      }
    },
    {
      "type": "node",
      "id": 226059617,
      "lat": 63.4216828,
      "lon": 10.4469755,
      "tags": {
        "created_by": "JOSM",
        "name": "Showtime",
        "shop": "kiosk"
      }
    },
    {
      "type": "node",
      "id": 226059642,
      "lat": 63.4245,
      "lon": 10.4417,
      "tags": {
        "branch": "Valentinlyst",
        "brand": "Coop Mega",
        "email": "coop.mega.valentinlyst@coopmidtnorge.no",
        "name": "Coop Mega Valentinlyst",
        "opening_hours": "Mo-Fr 09:00-22:00, Sa 09:00-20:00",
        "operator": "Trondos",
        "phone": "+47 40001249",
        "ref:coop": "1823",
        "service:tipping": "yes",
        "shop": "supermarket",
        "website": "http://www.trondos.no/trondos/butikker/mega/valentinlyst.php",
        "wheelchair": "yes"
      }
    },
    {
      "type": "node",
      "id": 226059650,
      "lat": 63.4244419,
      "lon": 10.4411489,
      "tags": {
        "branch": "Valentinlyst, Trondheim",
        "brand": "Narvesen",
        "name": "Narvesen",
        "ref:narvesen": "356",
        "shop": "kiosk",
        "wheelchair": "yes"
      }
    },
    {
      "type": "node",
      "id": 226059674,
      "lat": 63.4309905,
      "lon": 10.4509365,
      "tags": {
        "addr:city": "Trondheim",
        "addr:housenumber": "7",
        "addr:postcode": "7045",
        "addr:street": "Kong Øysteins veg",
        "branch": "Bromstad",
        "brand": "Rema 1000",
        "email": "bromstad@rema.no",
        "name": "Rema 1000 Bromstad",
        "opening_hours": "Mo-Sa 07:00-23:00, Su 11:00-22:00",
        "phone": "+47 73 90 54 11",
        "ref:rema": "445451",
        "shop": "supermarket",
        "website": "http://butikk.rema.no/REMA+1000+Bromstad/445451",
        "wheelchair": "yes"
      }
    },
    {
      "type": "node",
      "id": 244375421,
      "lat": 63.4013609,
      "lon": 10.4048313,
      "tags": {
        "branch": "Nidarvoll",
        "brand": "Bunnpris",
        "email": "bpnidarvoll@bunnpris.no",
        "name": "Bunnpris & Gourmet Nidarvoll",
        "opening_hours": "Mo-Fr 08:00-23:00, Sa 09:00-22:00, Su 11:00-22:00",
        "phone": "+47 73966325",
        "ref:bunnpris": "5",
        "service:pharmacy": "yes",
        "service:postnord": "yes",
        "service:tipping": "yes",
        "shop": "supermarket",
        "wheelchair": "yes"
      }
    },
    {
      "type": "node",
      "id": 245395441,
      "lat": 63.4180446,
      "lon": 10.3524536,
      "tags": {
        "branch": "Byåsen",
        "brand": "Rema 1000",
        "email": "byasen@rema.no",
        "name": "Rema 1000 Byåsen",
        "opening_hours": "Mo-Sa 07:00-23:00",
        "phone": "+47 72 56 00 58",
        "ref:rema": "165102",
        "shop": "supermarket"
      }
    },
    {
      "type": "node",
      "id": 245395443,
      "lat": 63.4178709,
      "lon": 10.3519329,
      "tags": {
        "name": "Rosenborg bageri",
        "shop": "bakery"
      }
    },
    {
      "type": "node",
      "id": 246519025,
      "lat": 63.3918261,
      "lon": 10.3540636,
      "tags": {
        "created_by": "JOSM",
        "name": "Panoff bilverksted",
        "shop": "car"
      }
    },
    {
      "type": "node",
      "id": 246519042,
      "lat": 63.3876276,
      "lon": 10.3529083,
      "tags": {
        "name": "Bunnpris Rydningen",
        "shop": "supermarket",
        "website": "https://bunnpris.no/butikker/bunnpris-rydningen"
      }
    },
    {
      "type": "node",
      "id": 246705060,
      "lat": 63.4093372,
      "lon": 10.4446279,
      "tags": {
        "branch": "Moholt",
        "brand": "Extra",
        "email": "extra.moholt@coopmidtnorge.no",
        "name": "Extra Moholt",
        "opening_hours": "Mo-Fr 07:00-23:00, Sa 08:00-23:00",
        "phone": "+47 40001251",
        "ref:coop": "2161",
        "service:posten": "yes",
        "service:tipping": "yes",
        "shop": "supermarket"
      }
    },
    {
      "type": "node",
      "id": 246875581,
      "lat": 63.4470891,
      "lon": 10.4440871,
      "tags": {
        "branch": "Ladetorget",
        "brand": "Rema 1000",
        "email": "ladetorget@rema.no",
        "name": "Rema 1000 Ladetorget",
        "opening_hours": "Mo-Fr 07:00-23:00, Sa 09:00-21:00",
        "phone": "+47 73 90 06 22",
        "ref:rema": "242100",
        "service:posten": "yes",
        "shop": "supermarket",
        "wheelchair": "yes"
      }
    },
    {
      "type": "node",
      "id": 246875598,
      "lat": 63.4470235,
      "lon": 10.4443162,
      "tags": {
        "branch": "Lade, Trondheim",
        "brand": "Narvesen",
        "name": "Narvesen",
        "ref:narvesen": "319",
        "shop": "kiosk",
        "wheelchair": "yes"
      }
    },
    {
      "type": "node",
      "id": 248051572,
      "lat": 63.3887852,
      "lon": 10.3964104,
      "tags": {
        "created_by": "JOSM",
        "name": "Storvask",
        "shop": "dry_cleaning"
      }
    },
    {
      "type": "node",
      "id": 252909481,
      "lat": 63.4004764,
      "lon": 10.4022831,
      "tags": {
        "name": "NAF",
        "shop": "car_repair"
      }
    },
    {
      "type": "node",
      "id": 252909482,
      "lat": 63.400481,
      "lon": 10.4006759,
      "tags": {
        "brand": "Saab",
        "created_by": "JOSM",
        "name": "Din bil",
        "parts": "brand",
        "repair": "brand",
        "sale": "yes",
        "shop": "car"
      }
    },
    {
      "type": "node",
      "id": 255113226,
      "lat": 63.4365225,
      "lon": 10.4242808,
      "tags": {
        "branch": "Buran",
        "brand": "Bunnpris",
        "email": "bpburan@bunnpris.no",
        "name": "Bunnpris Buran",
        "opening_hours": "Mo-Fr 08:00-23:00, Sa 09:00-21:00",
        "phone": "+47 73841390",
        "ref:bunnpris": "8",
        "service:posten": "yes",
        "service:tipping": "yes",
        "shop": "supermarket",
        "wheelchair": "yes"
      }
    },
    {
      "type": "node",
      "id": 255113232,
      "lat": 63.4331125,
      "lon": 10.44723,
      "tags": {
        "branch": "Persaunet",
        "brand": "Coop Prix",
        "email": "persaunet.prix@coop.no",
        "name": "Coop Prix Persaunet",
        "opening_hours": "Mo-Fr 08:00-23:00, Sa 09:00-21:00",
        "phone": "+47 73914242",
        "ref:coop": "4705",
        "service:postnord": "yes",
        "service:tipping": "yes",
        "shop": "supermarket"
      }
    },
    {
      "type": "node",
      "id": 260303215,
      "lat": 63.3912751,
      "lon": 10.4207499,
      "tags": {
        "branch": "Stubban",
        "brand": "Bunnpris",
        "email": "bpstubban@bunnpris.no",
        "name": "Bunnpris Stubban",
        "opening_hours": "Mo-Fr 08:00-22:00, Sa 09:00-21:00",
        "phone": "+47 73966120",
        "ref:bunnpris": "32",
        "service:postnord": "yes",
        "service:tipping": "yes",
        "shop": "supermarket"
      }
    },
    {
      "type": "node",
      "id": 276822137,
      "lat": 63.3688438,
      "lon": 10.3950268,
      "tags": {
        "branch": "Sjetnemarka",
        "brand": "Coop Prix",
        "email": "coop.prix.sjetnemarka@coopmidtnorge.no",
        "name": "Coop Prix Sjetnemarka",
        "opening_hours": "Mo-Fr 07:00-22:00, Sa 08:00-21:00",
        "phone": "+47 40001239",
        "ref:coop": "1816",
        "service:postnord": "yes",
        "service:tipping": "yes",
        "shop": "supermarket"
      }
    },
    {
      "type": "node",
      "id": 279475869,
      "lat": 63.4218879,
      "lon": 10.3941591,
      "tags": {
        "branch": "Elgeseter",
        "brand": "7-Eleven",
        "email": "edda.711no7076@7-eleven.no",
        "name": "7-Eleven Elgeseter",
        "opening_hours": "Mo-Tu 06:30-24:00, We-Th 06:30-03:00, Fr-Su 00:00-24:00",
        "phone": "+47 73506014",
        "ref:7eleven": "614",
        "shop": "convenience"
      }
    },
    {
      "type": "node",
      "id": 291073606,
      "lat": 63.3618775,
      "lon": 10.3894488,
      "tags": {
        "branch": "Tonstad",
        "brand": "Bunnpris",
        "email": "bptonstad@bunnpris.no",
        "name": "Bunnpris Tonstad",
        "opening_hours": "Mo-Fr 07:00-22:00, Sa 09:00-22:00, Su 11:00-22:00",
        "phone": "+47 72887992",
        "ref:bunnpris": "33",
        "service:posten": "yes",
        "service:postnord": "yes",
        "service:rikstoto": "yes",
        "service:tipping": "yes",
        "shop": "supermarket"
      }
    },
    {
      "type": "node",
      "id": 340178380,
      "lat": 63.4298888,
      "lon": 10.3907239,
      "tags": {
        "branch": "Leuthenhaven, Trondheim",
        "brand": "Narvesen",
        "name": "Narvesen",
        "ref:narvesen": "328",
        "shop": "kiosk",
        "wheelchair": "yes"
      }
    },
    {
      "type": "node",
      "id": 356905428,
      "lat": 63.4332181,
      "lon": 10.4474105,
      "tags": {
        "shop": "hairdresser"
      }
    },
    {
      "type": "node",
      "id": 379826532,
      "lat": 63.4314124,
      "lon": 10.4032191,
      "tags": {
        "brand": "Citroën",
        "name": "Bilhuset",
        "opening_hours": "Mo-Fr 08:00-17:00; Th 08:00-18:00; Sa 10:00-14:00",
        "shop": "car",
        "website": "http://www.bilhuset-trondheim.no/"
      }
    },
    {
      "type": "node",
      "id": 379844101,
      "lat": 63.4338579,
      "lon": 10.4152445,
      "tags": {
        "name": "Rosenborg bakeri",
        "opening_hours": "Mo-Fr 07:00-17:00; Sa, Su 09:00-16:00",
        "shop": "bakery",
        "wheelchair": "limited"
      }
    },
    {
      "type": "node",
      "id": 382917154,
      "lat": 63.43211,
      "lon": 10.393687,
      "tags": {
        "branch": "Munkegaten",
        "brand": "Bunnpris",
        "email": "bpmunkegate@bunnpris.no",
        "name": "Bunnpris Munkegaten",
        "opening_hours": "Mo-Fr 07:00-23:00, Sa 09:00-21:00",
        "phone": "+47 73521700",
        "ref:bunnpris": "22",
        "service:postnord": "yes",
        "service:tipping": "yes",
        "shop": "supermarket",
        "website": "http://bunnpris.no/butikker/bunnpris-munkegaten",
        "wheelchair": "yes"
      }
    },
    {
      "type": "node",
      "id": 386579876,
      "lat": 63.432708,
      "lon": 10.3933552,
      "tags": {
        "name": "Mozart",
        "opening_hours": "Mo-Tu 10:00-17:00; We-Th 10:00-18:00; Fr 10:00-17:00; Sa 10:00-15:00",
        "shop": "hairdresser",
        "website": "https://www.facebook.com/MozartFrisor",
        "wheelchair": "limited"
      }
    },
    {
      "type": "node",
      "id": 386579889,
      "lat": 63.4324183,
      "lon": 10.3944759,
      "tags": {
        "name": "TGR",
        "opening_hours": "Mo-Fr 10:00-20:00; Sa-Su 10:00-18:00",
        "operator": "Flying Tiger",
        "shop": "variety_store",
        "website": "http://tgr-stores.no/sv-se/countries/norway/stores/trondheim%20-%20tgr%20trondheim"
      }
    },
    {
      "type": "node",
      "id": 386579898,
      "lat": 63.431781,
      "lon": 10.397879,
      "tags": {
        "addr:city": "Trondheim",
        "addr:housenumber": "7",
        "addr:postcode": "7011",
        "addr:street": "Dronningens gate",
        "branch": "Dronningens gate 7, Trondheim",
        "brand": "Narvesen",
        "name": "Narvesen",
        "opening_hours": "Mo-Fr 07:30-21:00, Sa 08:30-19:00, Su 11:00-19:00",
        "operator": "Narvesen",
        "ref:narvesen": "347",
        "shop": "kiosk",
        "website": "http://narvesen.no/",
        "wheelchair": "yes"
      }
    },
    {
      "type": "node",
      "id": 386579908,
      "lat": 63.430634,
      "lon": 10.39733,
      "tags": {
        "addr:city": "Trondheim",
        "addr:housenumber": "10-12",
        "addr:street": "Kongens gate",
        "name": "Ark Bruns",
        "shop": "books"
      }
    },
    {
      "type": "node",
      "id": 387530378,
      "lat": 63.4323789,
      "lon": 10.4173101,
      "tags": {
        "branch": "Rosenborg",
        "brand": "Bunnpris",
        "email": "bprosenborg@bunnpris.no",
        "name": "Bunnpris Rosenborg",
        "opening_hours": "Mo-Fr 08:00-23:00, Sa 09:00-21:00",
        "phone": "+47 73522028",
        "ref:bunnpris": "26",
        "service:posten": "yes",
        "service:postnord": "yes",
        "service:tipping": "yes",
        "shop": "supermarket",
        "wheelchair": "yes"
      }
    },
    {
      "type": "node",
      "id": 387620731,
      "lat": 63.4430186,
      "lon": 10.447441,
      "tags": {
        "name": "Coop Obs! Hypermarked",
        "opening_hours": "Mo-Fr 09:00-21:00; Sa 09:00-20:00",
        "operator": "Trondos",
        "service:bicycle:repair": "yes",
        "service:bicycle:retail": "yes",
        "shop": "department_store",
        "source": "www.coop.no",
        "wheelchair": "yes"
      }
    },
    {
      "type": "node",
      "id": 418609156,
      "lat": 63.3859208,
      "lon": 10.3728428,
      "tags": {
        "brand": "Peugeot",
        "name": "Prøven Bil AS",
        "shop": "car"
      }
    },
    {
      "type": "node",
      "id": 431038571,
      "lat": 63.4176247,
      "lon": 10.4041519,
      "tags": {
        "level": "1",
        "name": "SiT Storkiosk",
        "operator": "Studentsamskipnaden i Trondheim",
        "shop": "convenience",
        "wheelchair": "yes"
      }
    },
    {
      "type": "node",
      "id": 436632347,
      "lat": 63.3737495,
      "lon": 10.3465932,
      "tags": {
        "branch": "Flatåsen",
        "brand": "Coop Prix",
        "email": "coop.prix.flatasen@coopmidtnorge.no",
        "name": "Coop Prix Flatåsen",
        "opening_hours": "Mo-Fr 07:00-23:00, Sa 08:00-23:00",
        "phone": "+47 40001241",
        "ref:coop": "1818",
        "service:tipping": "yes",
        "shop": "supermarket",
        "wheelchair": "yes"
      }
    },
    {
      "type": "node",
      "id": 440474728,
      "lat": 63.4167373,
      "lon": 10.4046108,
      "tags": {
        "level": "2",
        "name": "SiT Tapir Gløshaugen",
        "operator": "Studentsamskipnaden i Trondheim",
        "shop": "books",
        "wheelchair": "yes"
      }
    },
    {
      "type": "node",
      "id": 528932013,
      "lat": 63.3764792,
      "lon": 10.4278028,
      "tags": {
        "name": "Leira gartneri",
        "shop": "garden_centre"
      }
    },
    {
      "type": "node",
      "id": 530187931,
      "lat": 63.3586174,
      "lon": 10.3736552,
      "tags": {
        "name": "Plantasjen",
        "shop": "garden_centre",
        "wheelchair": "yes"
      }
    },
    {
      "type": "node",
      "id": 530890482,
      "lat": 63.4318026,
      "lon": 10.3923111,
      "tags": {
        "branch": "Prinsens gate",
        "brand": "Rema 1000",
        "email": "prinsensgate@rema.no",
        "name": "Rema 1000 Prinsens gate",
        "opening_hours": "Mo-Sa 07:00-23:00",
        "phone": "+47 73 53 60 30",
        "ref:rema": "1483519",
        "shop": "supermarket",
        "wheelchair": "yes"
      }
    },
    {
      "type": "node",
      "id": 530915939,
      "lat": 63.4331968,
      "lon": 10.3999322,
      "tags": {
        "addr:housenumber": "15",
        "addr:street": "Olav Tryggvasons gate",
        "branch": "Olav Tryggvasons gate",
        "brand": "Rema 1000",
        "email": "olav.tryggvason@rema.no",
        "name": "Rema 1000 Olav Tryggvasons gate",
        "opening_hours": "Mo-Sa 07:00-23:00",
        "phone": "+47 73 52 29 49",
        "ref:rema": "971633",
        "shop": "supermarket",
        "website": "https://www.rema.no/butikker/Trondheim/rema-1000-olav-tryggvasonsgate/971633",
        "wheelchair": "yes"
      }
    },
    {
      "type": "node",
      "id": 530941409,
      "lat": 63.4310473,
      "lon": 10.3923386,
      "tags": {
        "name": "Specsavers Trondheim",
        "opening_hours": "Mo-Fr 09:00-17:00; Th 09:00-18:00; Sa 10:00-15:00",
        "operator": "Specsavers",
        "phone": "+47 73 87 66 60",
        "shop": "optician",
        "website": "http://www.specsavers.no/finn-din-butikk/trondheim"
      }
    },
    {
      "type": "node",
      "id": 530942545,
      "lat": 63.429895,
      "lon": 10.3942776,
      "tags": {
        "branch": "Torvet",
        "brand": "Rema 1000",
        "email": "torvet@rema.no",
        "name": "Rema 1000 Torvet",
        "opening_hours": "Mo-Sa 07:00-23:00",
        "phone": "+47 73 51 60 37",
        "ref:rema": "1402498",
        "shop": "supermarket",
        "website": "https://www.rema.no/butikker/Trondheim/rema-1000-torvet/1402498",
        "wheelchair": "yes"
      }
    },
    {
      "type": "node",
      "id": 530956404,
      "lat": 63.4324298,
      "lon": 10.3957338,
      "tags": {
        "addr:city": "Trondheim",
        "addr:housenumber": "6",
        "addr:postcode": "7011",
        "addr:street": "Jomfrugata",
        "name": "Kitch'n Sentrum",
        "opening_hours": "Mo-Sa 10:00-18:00",
        "shop": "houseware"
      }
    },
    {
      "type": "node",
      "id": 530959422,
      "lat": 63.4325241,
      "lon": 10.3957036,
      "tags": {
        "addr:city": "Trondheim",
        "addr:housenumber": "15",
        "addr:postcode": "7011",
        "addr:street": "Thomas Angells gate",
        "name": "Eplehuset",
        "shop": "computer",
        "wheelchair": "yes"
      }
    },
    {
      "type": "node",
      "id": 532019151,
      "lat": 63.407353,
      "lon": 10.397406,
      "tags": {
        "branch": "Tempe",
        "brand": "Extra",
        "email": "tempe.extra@coop.no",
        "name": "Extra Tempe",
        "opening_hours": "Mo-Fr 07:00-23:00, Sa 08:00-21:00",
        "phone": "+47 73945611",
        "ref:coop": "4361",
        "service:posten": "yes",
        "service:rikstoto": "yes",
        "service:tipping": "yes",
        "shop": "supermarket"
      }
    },
    {
      "type": "node",
      "id": 533963399,
      "lat": 63.4086415,
      "lon": 10.4684999,
      "tags": {
        "name": "SiT Storkiosk Dragvoll",
        "operator": "Studentsamskipnaden i Trondheim",
        "shop": "convenience"
      }
    },
    {
      "type": "node",
      "id": 535199058,
      "lat": 63.408112,
      "lon": 10.4694603,
      "tags": {
        "name": "SiT Akademika Dragvoll",
        "operator": "Studentsamskipnaden i Trondheim",
        "shop": "books"
      }
    },
    {
      "type": "node",
      "id": 543383668,
      "lat": 63.4213196,
      "lon": 10.3932219,
      "tags": {
        "name": "SiT Storkiosk Øya",
        "operator": "Studentsamskipnaden i Trondheim",
        "shop": "convenience",
        "wheelchair": "yes"
      }
    },
    {
      "type": "node",
      "id": 543386047,
      "lat": 63.439693,
      "lon": 10.4495585,
      "tags": {
        "name": "SiT Tapir DMMH",
        "operator": "Studentsamskipnaden i Trondheim",
        "shop": "books"
      }
    },
    {
      "type": "node",
      "id": 543393716,
      "lat": 63.4391288,
      "lon": 10.4835632,
      "tags": {
        "name": "SiT Tapir Rotvoll",
        "operator": "Studentsamskipnaden i Trondheim",
        "shop": "books"
      }
    },
    {
      "type": "node",
      "id": 546144125,
      "lat": 63.428428,
      "lon": 10.3875985,
      "tags": {
        "name": "SiT Akademika kalvskinnet",
        "opening_hours": "Mo-Sa 08:30-15:30",
        "operator": "Studentsamskipnaden i Trondheim",
        "shop": "books",
        "website": "https://www.akademika.no/butikker/akademika-kalvskinnet"
      }
    },
    {
      "type": "node",
      "id": 576100719,
      "lat": 63.4064466,
      "lon": 10.4009537,
      "tags": {
        "name": "Snap Drive Sorgenfri",
        "shop": "car_repair"
      }
    },
    {
      "type": "node",
      "id": 576335358,
      "lat": 63.4123281,
      "lon": 10.402415,
      "tags": {
        "name": "MX Sport",
        "operator": "MX Sport",
        "shop": "sports"
      }
    },
    {
      "type": "node",
      "id": 628626611,
      "lat": 63.4313329,
      "lon": 10.4066357,
      "tags": {
        "addr:housenumber": "56",
        "addr:street": "Nedre Bakklandet",
        "branch": "Bakklandet",
        "brand": "Rema 1000",
        "email": "bakklandet@rema.no",
        "name": "Rema 1000 Bakklandet",
        "opening_hours": "Mo-Sa 07:00-23:00",
        "operator": "Rema 1000",
        "phone": "+47 73 52 96 10",
        "ref:rema": "1540002",
        "shop": "supermarket",
        "website": "https://www.rema.no/butikker/Trondheim/rema-1000-bakklandet/1540002",
        "wheelchair": "yes"
      }
    },
    {
      "type": "node",
      "id": 628626613,
      "lat": 63.43181,
      "lon": 10.407819,
      "tags": {
        "branch": "Bakklandet",
        "brand": "Bunnpris",
        "email": "bpbakklandet@bunnpris.no",
        "name": "Bunnpris Bakklandet",
        "opening_hours": "Mo-Fr 07:00-23:00, Sa 09:00-21:00, Su 10:00-22:00",
        "ref:bunnpris": "6",
        "shop": "supermarket"
      }
    },
    {
      "type": "node",
      "id": 713897548,
      "lat": 63.4031619,
      "lon": 10.4278199,
      "tags": {
        "name": "Nardo frisørsenter",
        "shop": "hairdresser",
        "wheelchair": "yes"
      }
    },
    {
      "type": "node",
      "id": 807246873,
      "lat": 63.3365072,
      "lon": 10.3533527,
      "tags": {
        "brand": "Fretex",
        "name": "Fretex Heimdal",
        "phone": "+47 72595915",
        "ref:fretex": "136",
        "shop": "charity"
      }
    },
    {
      "type": "node",
      "id": 840542886,
      "lat": 63.4351749,
      "lon": 10.4114171,
      "tags": {
        "branch": "Solsiden",
        "brand": "Meny",
        "email": "butikksjef.solsiden@meny.no",
        "level": "0",
        "name": "Meny Solsiden",
        "opening_hours": "Mo-Fr 08:00-22:00, Sa 09:00-20:00",
        "phone": "+47 73 83 14 50",
        "ref": "101",
        "ref:norgesgruppen": "1150426",
        "shop": "supermarket",
        "wheelchair": "yes"
      }
    },
    {
      "type": "node",
      "id": 845442046,
      "lat": 63.4312926,
      "lon": 10.3922766,
      "tags": {
        "name": "AtB kundesenter",
        "opening_hours": "Mo-Fr 07:30-17:30; Sa 10:00-15:00",
        "shop": "ticket",
        "website": "https://www.atb.no/kundesenter/"
      }
    },
    {
      "type": "node",
      "id": 947121632,
      "lat": 63.420161,
      "lon": 10.395003,
      "tags": {
        "amenity": "fuel",
        "branch": "Elgseter",
        "brand": "Shell",
        "car_wash": "yes",
        "fuel:HGV_diesel": "yes",
        "fuel:diesel": "yes",
        "fuel:octane_95": "yes",
        "fuel:octane_98": "yes",
        "hgv": "yes",
        "name": "Shell Elgseter",
        "opening_hours": "24/7",
        "phone": "+47 73522405",
        "ref:st1": "9044",
        "shop": "yes"
      }
    },
    {
      "type": "node",
      "id": 956343601,
      "lat": 63.4318381,
      "lon": 10.3939352,
      "tags": {
        "name": "7 Eleven Munkegata",
        "opening_hours": "24/7",
        "operator": "7 Eleven",
        "shop": "convenience",
        "website": "http://www.7-eleven.no/",
        "wheelchair": "yes"
      }
    },
    {
      "type": "node",
      "id": 979961110,
      "lat": 63.4190117,
      "lon": 10.4308866,
      "tags": {
        "branch": "Tyholt",
        "brand": "Bunnpris",
        "email": "bptyholt@bunnpris.no",
        "name": "Bunnpris & Gourmet Tyholt",
        "opening_hours": "Mo-Fr 08:00-23:00, Sa 09:00-22:00",
        "phone": "+47 73935210",
        "ref:bunnpris": "38",
        "service:catering": "yes",
        "service:posten": "yes",
        "service:tipping": "yes",
        "shop": "supermarket"
      }
    },
    {
      "type": "node",
      "id": 1000568759,
      "lat": 63.431054,
      "lon": 10.360204,
      "tags": {
        "branch": "Ila",
        "brand": "Extra",
        "email": "coop.extra.ila@coopmidtnorge.no",
        "name": "Extra Ila",
        "opening_hours": "Mo-Fr 07:00-23:00, Sa 08:00-23:00",
        "phone": "+47 40001226",
        "ref:coop": "2427",
        "service:posten": "yes",
        "service:tipping": "yes",
        "shop": "supermarket"
      }
    },
    {
      "type": "node",
      "id": 1017759979,
      "lat": 63.4442803,
      "lon": 10.4402443,
      "tags": {
        "branch": "Lade",
        "brand": "Bunnpris",
        "email": "bplade@bunnpris.no",
        "name": "Bunnpris Lade",
        "opening_hours": "Mo-Fr 08:00-23:00, Sa 09:00-21:00",
        "phone": "+47 73526069",
        "ref:bunnpris": "18",
        "service:postnord": "yes",
        "service:tipping": "yes",
        "shop": "supermarket",
        "wheelchair": "yes"
      }
    },
    {
      "type": "node",
      "id": 1023726487,
      "lat": 63.3930421,
      "lon": 10.4023463,
      "tags": {
        "brand": "Nissan",
        "name": "Witro Bil",
        "service": "dealer;repair",
        "shop": "car"
      }
    },
    {
      "type": "node",
      "id": 1200404358,
      "lat": 63.436493,
      "lon": 10.416296,
      "tags": {
        "branch": "Solsiden",
        "brand": "Rema 1000",
        "email": "solsiden@rema.no",
        "name": "Rema 1000 Solsiden",
        "opening_hours": "Mo-Fr 07:00-23:00, Sa 09:00-23:00, Su 11:00-22:00",
        "phone": "+47 73 52 13 80",
        "ref:rema": "1553243",
        "shop": "supermarket",
        "wheelchair": "yes"
      }
    },
    {
      "type": "node",
      "id": 1262669877,
      "lat": 63.413785,
      "lon": 10.4156301,
      "tags": {
        "shop": "laundry"
      }
    },
    {
      "type": "node",
      "id": 1271268055,
      "lat": 63.4071303,
      "lon": 10.3587963,
      "tags": {
        "addr:city": "Trondheim",
        "addr:housenumber": "158",
        "addr:postcode": "7021",
        "addr:street": "Byåsveien",
        "name": "Agaton Sax",
        "shop": "hairdresser"
      }
    },
    {
      "type": "node",
      "id": 1271462037,
      "lat": 63.4072526,
      "lon": 10.358847,
      "tags": {
        "shop": "beauty"
      }
    },
    {
      "type": "node",
      "id": 1291409935,
      "lat": 63.4300132,
      "lon": 10.3939084,
      "tags": {
        "name": "H&M",
        "opening_hours": "Mo-Fr 09:00-20:00; Sa 09:00-18:00; Dec 1-24 Su 14:00-19:00; Dec 7-24 Sa 09:00-20:00; Dec 12-22 Mo-Fr 09:00-21:00; Dec 24 13:00+ off; Dec 25-26 off; Dec 27-30 18:00+ off; Dec 31 16:00+ off; Jan 1 off",
        "shop": "clothes",
        "website": "http://www.hm.com/no/",
        "wheelchair": "yes"
      }
    },
    {
      "type": "node",
      "id": 1291410147,
      "lat": 63.4301614,
      "lon": 10.3933854,
      "tags": {
        "level": "-1",
        "name": "Trondheim Torg Frisør",
        "opening_hours": "Mo-Fr 09:00-20:00; Sa 09:00-18:00; Dec 1-24 Su 14:00-19:00; Dec 7-24 Sa 09:00-20:00; Dec 12-22 Mo-Fr 09:00-21:00; Dec 24 13:00+ off; Dec 25-26 off; Dec 27-30 18:00+ off; Dec 31 16:00+ off; Jan 1 off",
        "shop": "hairdresser",
        "website": "https://www.facebook.com/TrondheimTorgFrisor",
        "wheelchair": "yes"
      }
    },
    {
      "type": "node",
      "id": 1291410148,
      "lat": 63.4302357,
      "lon": 10.3937188,
      "tags": {
        "level": "3",
        "name": "BR-Leker",
        "opening_hours": "Mo-Fr 09:00-20:00; Sa 09:00-18:00; Dec 1-24 Su 14:00-19:00; Dec 7-24 Sa 09:00-20:00; Dec 12-22 Mo-Fr 09:00-21:00; Dec 24 13:00-24:00; Dec 25, 26 off; Dec 27-30 18:00-24:00; Dec 31 16:00-24:00; Jan 1 off",
        "shop": "toys",
        "website": "http://www.br.no/butik/2308"
      }
    },
    {
      "type": "node",
      "id": 1291410149,
      "lat": 63.4299843,
      "lon": 10.3933656,
      "tags": {
        "level": "1",
        "name": "Gullfunn",
        "shop": "jewelry",
        "website": "http://www.gullfunn.no/"
      }
    },
    {
      "type": "node",
      "id": 1291410150,
      "lat": 63.4297968,
      "lon": 10.3936119,
      "tags": {
        "level": "1",
        "name": "Ark",
        "opening_hours": "Mo-Fr 09:00-20:00; Sa 09:00-18:00; Dec 1-24 Su 14:00-19:00; Dec 7-24 Sa 09:00-20:00; Dec 12-22 Mo-Fr 09:00-21:00; Dec 24 13:00+ off; Dec 25-26 off; Dec 27-30 18:00+ off; Dec 31 16:00+ off; Jan 1 off",
        "shop": "books",
        "website": "http://www.ark.no/",
        "wheelchair": "yes"
      }
    },
    {
      "type": "node",
      "id": 1291410152,
      "lat": 63.4293761,
      "lon": 10.3932782,
      "tags": {
        "level": "2",
        "name": "Black & White",
        "shop": "gift",
        "website": "http://www.blackandwhiteshop.no/"
      }
    },
    {
      "type": "node",
      "id": 1291411191,
      "lat": 63.4404952,
      "lon": 10.4037651,
      "tags": {
        "name": "Piraten",
        "shop": "hairdresser",
        "wheelchair": "yes"
      }
    },
    {
      "type": "node",
      "id": 1296779392,
      "lat": 63.4199952,
      "lon": 10.3865504,
      "tags": {
        "branch": "St. Olav Akutten",
        "brand": "Narvesen",
        "level": "1",
        "name": "Narvesen",
        "ref:narvesen": "141",
        "shop": "kiosk",
        "wheelchair": "yes"
      }
    },
    {
      "type": "node",
      "id": 1373859711,
      "lat": 63.3535034,
      "lon": 10.355301,
      "tags": {
        "branch": "Heimdal",
        "brand": "Spar",
        "email": "spar.heimdal@spar.no",
        "name": "Spar Heimdal",
        "opening_hours": "Mo-Fr 07:00-22:00, Sa 09:00-21:00",
        "phone": "+47 72597220",
        "ref:norgesgruppen": "1361891",
        "service:tipping": "yes",
        "shop": "supermarket"
      }
    },
    {
      "type": "node",
      "id": 1373859712,
      "lat": 63.353412,
      "lon": 10.3568781,
      "tags": {
        "addr:city": "Heimdal",
        "addr:housenumber": "7",
        "addr:postcode": "7088",
        "addr:street": "Søbstadvegen",
        "branch": "Heimdal",
        "brand": "Bunnpris",
        "email": "bpheimdal@bunnpris.no",
        "name": "Bunnpris Heimdal",
        "opening_hours": "Mo-Fr 08:00-23:00, Sa 09:00-21:00",
        "phone": "+47 72846466",
        "ref:bunnpris": "12",
        "service:posten": "yes",
        "service:postnord": "yes",
        "service:tipping": "yes",
        "shop": "supermarket",
        "wheelchair": "yes"
      }
    },
    {
      "type": "node",
      "id": 1373921219,
      "lat": 63.3515919,
      "lon": 10.3565241,
      "tags": {
        "name": "G-Sport Trondheim AS",
        "service:bicycle:repair": "yes",
        "service:bicycle:retail": "yes",
        "shop": "sports",
        "website": "http://www.gsporttrondheim.no/",
        "wheelchair": "yes"
      }
    },
    {
      "type": "node",
      "id": 1373921224,
      "lat": 63.3519275,
      "lon": 10.355706,
      "tags": {
        "name": "Arne Johansens Fisk",
        "shop": "seafood"
      }
    },
    {
      "type": "node",
      "id": 1373921226,
      "lat": 63.3516628,
      "lon": 10.3541074,
      "tags": {
        "branch": "Heimdal",
        "brand": "Rema 1000",
        "email": "heimdal@rema.no",
        "name": "Rema 1000 Heimdal",
        "opening_hours": "Mo-Fr 07:00-23:00, Sa 08:00-22:00",
        "operator": "REMA 1000",
        "phone": "+47 72 84 66 80",
        "ref:rema": "256070",
        "shop": "supermarket",
        "wheelchair": "yes"
      }
    },
    {
      "type": "node",
      "id": 1373921228,
      "lat": 63.3516328,
      "lon": 10.3563846,
      "tags": {
        "branch": "Søbstadveien, Heimdal",
        "brand": "Narvesen",
        "name": "Narvesen",
        "ref:narvesen": "159",
        "shop": "kiosk",
        "wheelchair": "yes"
      }
    },
    {
      "type": "node",
      "id": 1373921229,
      "lat": 63.35164,
      "lon": 10.3560252,
      "tags": {
        "addr:city": "Heimdal",
        "addr:housenumber": "2",
        "addr:postcode": "7088",
        "addr:street": "Søbstadvegen",
        "name": "Heimdal Blomster",
        "shop": "florist",
        "wheelchair": "limited"
      }
    },
    {
      "type": "node",
      "id": 1373921231,
      "lat": 63.3518265,
      "lon": 10.3556872,
      "tags": {
        "name": "Hoff Mote",
        "shop": "clothes"
      }
    },
    {
      "type": "node",
      "id": 1381677677,
      "lat": 63.3539233,
      "lon": 10.3798408,
      "tags": {
        "branch": "Rognbudalen",
        "brand": "Rema 1000",
        "email": "rognbudalen@rema.no",
        "name": "Rema 1000 Rognbudalen",
        "opening_hours": "Mo-Sa 07:00-23:00",
        "phone": "+47 72 55 55 00",
        "ref:rema": "2082272",
        "shop": "supermarket"
      }
    },
    {
      "type": "node",
      "id": 1393035553,
      "lat": 63.4307607,
      "lon": 10.4207846,
      "tags": {
        "name": "Mask frisør",
        "opening_hours": "Mo-Fr 09:00-18:00; Th 09:00-20:00; Sa 09:00-15:00",
        "shop": "hairdresser",
        "website": "http://www.maskfrisoer.no/"
      }
    },
    {
      "type": "node",
      "id": 1427194518,
      "lat": 63.423045,
      "lon": 10.3897843,
      "tags": {
        "branch": "Øya",
        "brand": "Coop Prix",
        "email": "coop.prix.oya@coopmidtnorge.no",
        "name": "Coop Prix Øya",
        "opening_hours": "Mo-Fr 07:00-23:00, Sa 08:00-21:00",
        "operator": "Coop",
        "phone": "+47 40001225",
        "ref:coop": "1802",
        "service:tipping": "yes",
        "shop": "supermarket",
        "wheelchair": "yes"
      }
    },
    {
      "type": "node",
      "id": 1433533635,
      "lat": 63.3665584,
      "lon": 10.3480357,
      "tags": {
        "addr:city": "Saupstad",
        "addr:housenumber": "18",
        "addr:postcode": "7078",
        "addr:street": "Reier Søbstads veg",
        "branch": "Kolstad",
        "brand": "Extra",
        "email": "extra.kolstad@coopmidtnorge.no",
        "name": "Extra Kolstad",
        "opening_hours": "Mo-Fr 07:00-23:00, Sa 08:00-23:00",
        "operator": "Coop Extra",
        "phone": "+47 40001245",
        "ref:coop": "1822",
        "service:posten": "yes",
        "service:postnord": "yes",
        "service:tipping": "yes",
        "shop": "supermarket",
        "wheelchair": "yes"
      }
    },
    {
      "type": "node",
      "id": 1437282644,
      "lat": 63.409408,
      "lon": 10.4188753,
      "tags": {
        "addr:city": "Trondheim",
        "addr:housenumber": "10",
        "addr:postcode": "7032",
        "addr:street": "Nardovegen",
        "alt_name": "secondhand shop",
        "brand": "Fretex",
        "name": "Fretex Nardo",
        "phone": "+47 73936919",
        "ref:fretex": "138",
        "shop": "charity"
      }
    },
    {
      "type": "node",
      "id": 1459891917,
      "lat": 63.4099802,
      "lon": 10.4396236,
      "tags": {
        "name": "Bohus Møbler Moholt",
        "shop": "furniture"
      }
    },
    {
      "type": "node",
      "id": 1583880267,
      "lat": 63.4094531,
      "lon": 10.445065,
      "tags": {
        "shop": "hairdresser"
      }
    },
    {
      "type": "node",
      "id": 1589656442,
      "lat": 63.3990118,
      "lon": 10.4391921,
      "tags": {
        "addr:postcode": "7033",
        "addr:street": "Arne Bergsgårds veg",
        "shop": "laundry"
      }
    },
    {
      "type": "node",
      "id": 1589691582,
      "lat": 63.3990229,
      "lon": 10.436077,
      "tags": {
        "branch": "Vestlia",
        "brand": "Bunnpris",
        "email": "bpvestlia@bunnpris.no",
        "name": "Bunnpris Vestlia",
        "opening_hours": "Mo-Fr 08:00-22:00, Sa 09:00-21:00",
        "phone": "+47 73962892",
        "ref:bunnpris": "35",
        "service:postnord": "yes",
        "service:tipping": "yes",
        "shop": "supermarket"
      }
    },
    {
      "type": "node",
      "id": 1596649011,
      "lat": 63.4032343,
      "lon": 10.427532,
      "tags": {
        "name": "Floriss",
        "shop": "florist"
      }
    },
    {
      "type": "node",
      "id": 1651440040,
      "lat": 63.4134228,
      "lon": 10.4133081,
      "tags": {
        "name": "Frisørn",
        "opening_hours": "Mo-Fr 09:00-17:00; Sa 10:00-14:00",
        "shop": "hairdresser",
        "unisex": "yes"
      }
    },
    {
      "type": "node",
      "id": 1666929775,
      "lat": 63.4193956,
      "lon": 10.3953612,
      "tags": {
        "branch": "Elgeseter",
        "brand": "Bunnpris",
        "email": "bpelgeseter@bunnpris.no",
        "name": "Bunnpris & Gourmet Elgeseter",
        "opening_hours": "Mo-Fr 07:00-23:00, Sa 09:00-21:00",
        "phone": "+47 73533265",
        "ref:bunnpris": "2",
        "service:posten": "yes",
        "service:rikstoto": "yes",
        "service:tipping": "yes",
        "shop": "supermarket"
      }
    },
    {
      "type": "node",
      "id": 1667274375,
      "lat": 63.431941,
      "lon": 10.4075883,
      "tags": {
        "name": "Mix Bakke Bru",
        "shop": "kiosk"
      }
    },
    {
      "type": "node",
      "id": 1768092001,
      "lat": 63.4330355,
      "lon": 10.3928576,
      "tags": {
        "name": "Asia matvarer",
        "opening_hours": "Mo-Sa 10:00-17:00",
        "shop": "convenience",
        "website": "https://www.facebook.com/pages/Asia-Matvarer-Trondheim/181700391852466"
      }
    },
    {
      "type": "node",
      "id": 1768856456,
      "lat": 63.4405382,
      "lon": 10.4639638,
      "tags": {
        "name": "Franske Nytelser",
        "opening_hours": "Mo-Fr 06:00-17:00; Sa 08:00-17:00",
        "shop": "bakery",
        "website": "http://franskenytelser.no/"
      }
    },
    {
      "type": "node",
      "id": 1776813857,
      "lat": 63.4126612,
      "lon": 10.4303506,
      "tags": {
        "addr:city": "Trondheim",
        "addr:housename": "Aktivitetshuset",
        "addr:housenumber": "65",
        "addr:postcode": "7050",
        "addr:street": "Bregnevegen",
        "shop": "laundry",
        "website": "http://www.sit.no/vaskeri/"
      }
    },
    {
      "type": "node",
      "id": 1834028909,
      "lat": 63.3507647,
      "lon": 10.3554858,
      "tags": {
        "branch": "Heimdal",
        "brand": "Coop Prix",
        "email": "coop.prix.heimdal@coopmidtnorge.no",
        "name": "Coop Prix Heimdal",
        "opening_hours": "Mo-Fr 08:00-23:00, Sa 08:00-21:00",
        "phone": "+47 40001237",
        "ref:coop": "1814",
        "service:tipping": "yes",
        "shop": "supermarket"
      }
    },
    {
      "type": "node",
      "id": 1834028918,
      "lat": 63.3514148,
      "lon": 10.3553373,
      "tags": {
        "name": "Heimdal Optik",
        "shop": "optician",
        "wheelchair": "no"
      }
    },
    {
      "type": "node",
      "id": 1834028927,
      "lat": 63.351573,
      "lon": 10.35586,
      "tags": {
        "name": "Melhus Bakeri",
        "shop": "bakery"
      }
    },
    {
      "type": "node",
      "id": 1834028929,
      "lat": 63.3517243,
      "lon": 10.3539629,
      "tags": {
        "name": "Nille",
        "shop": "variety_store"
      }
    },
    {
      "type": "node",
      "id": 1834502430,
      "lat": 63.3536933,
      "lon": 10.3592281,
      "tags": {
        "name": "Mestergruppen",
        "shop": "trade",
        "trade": "building_supplies"
      }
    },
    {
      "type": "node",
      "id": 1850218236,
      "lat": 63.432567,
      "lon": 10.39789,
      "tags": {
        "addr:city": "Trondheim",
        "addr:housenumber": "11",
        "addr:postcode": "7011",
        "addr:street": "Nordre gate",
        "name": "Blow frisør",
        "opening_hours": "Mo-Fr 10:00-19:00; Sa 10:00-17:00",
        "phone": "+47 73 80 91 10",
        "shop": "hairdresser",
        "website": "http://blowhairdressing.no/"
      }
    },
    {
      "type": "node",
      "id": 1850218249,
      "lat": 63.431189,
      "lon": 10.3979,
      "tags": {
        "addr:city": "Trondheim",
        "addr:housenumber": "3",
        "addr:postcode": "7011",
        "addr:street": "Nordre gate",
        "name": "H2 Frisør Nordre",
        "opening_hours": "10:00-18:00",
        "operator": "H2",
        "phone": "73807609",
        "shop": "hairdresser",
        "website": "http://www.h2.no/h2-frisor-nordre/"
      }
    },
    {
      "type": "node",
      "id": 1850218266,
      "lat": 63.432552,
      "lon": 10.397025,
      "tags": {
        "addr:city": "Trondheim",
        "addr:housenumber": "16",
        "addr:postcode": "7011",
        "addr:street": "Nordre gate",
        "name": "Din Sko",
        "opening_hours": "Mo-Fr 09:00-19:00;Sa 10:00-18:00",
        "operator": "Din Sko",
        "phone": "73520816",
        "shop": "shoes",
        "website": "http://www.putfeetfirst.com/no/store-finder/trondheim/1107"
      }
    },
    {
      "type": "node",
      "id": 1850218269,
      "lat": 63.432611,
      "lon": 10.397156,
      "tags": {
        "addr:city": "Trondheim",
        "addr:housenumber": "16",
        "addr:postcode": "7011",
        "addr:street": "Nordre gate",
        "name": "Weekday",
        "opening_hours": "Mo-Sa 10:00-18:00; Th 10:00-19:00",
        "operator": "Weekday",
        "phone": "+47 73 52 30 52",
        "shop": "clothes",
        "website": "http://www.weekday.com/"
      }
    },
    {
      "type": "node",
      "id": 1850218275,
      "lat": 63.432762,
      "lon": 10.397117,
      "tags": {
        "branch": "Thomas Angells gate",
        "brand": "7-Eleven",
        "email": "thangelsgate.711no7099@7-eleven.no",
        "name": "7-Eleven Thomas Angells gate",
        "opening_hours": "Mo 06:00-24:00, Tu-We 06:00-03:00, Th 00:00-03:00, Fr 06:00-24:00, Sa-Su 00:00-24:00",
        "phone": "+47 48126585",
        "ref:7eleven": "626",
        "shop": "convenience"
      }
    },
    {
      "type": "node",
      "id": 1850218302,
      "lat": 63.4322701,
      "lon": 10.3977634,
      "tags": {
        "name": "Norli",
        "opening_hours": "Mo-Fr 09:00-18:00;Sa 10:00-18:00",
        "operator": "Norli",
        "shop": "books",
        "website": "http://www.norli.no/"
      }
    },
    {
      "type": "node",
      "id": 1879192978,
      "lat": 63.42126,
      "lon": 10.3570371,
      "tags": {
        "shop": "ticket"
      }
    },
    {
      "type": "node",
      "id": 1879192994,
      "lat": 63.4213233,
      "lon": 10.3570862,
      "tags": {
        "shop": "gift"
      }
    },
    {
      "type": "node",
      "id": 1884992174,
      "lat": 63.4095024,
      "lon": 10.4434273,
      "tags": {
        "name": "Mester Grønn",
        "shop": "florist"
      }
    },
    {
      "type": "node",
      "id": 1933407832,
      "lat": 63.4274909,
      "lon": 10.4033497,
      "tags": {
        "addr:city": "Trondheim",
        "addr:housenumber": "35",
        "addr:postcode": "7013",
        "addr:street": "Øvre Bakklandet",
        "contact:email": "arve@sykkelbua.com",
        "contact:phone": "+47 73 53 55 53",
        "name": "Sykkelbua",
        "opening_hours": "Mo-Fr 08:00-12:00,13:00-16:30",
        "repair": "only",
        "retail": "no",
        "service:bicycle:repair": "yes",
        "service:bicycle:retail": "no",
        "shop": "bicycle",
        "website": "http://www.sykkelbua.com/"
      }
    },
    {
      "type": "node",
      "id": 2068607070,
      "lat": 63.3637545,
      "lon": 10.3778633,
      "tags": {
        "name": "Byggmax",
        "shop": "doityourself"
      }
    },
    {
      "type": "node",
      "id": 2068607072,
      "lat": 63.3637906,
      "lon": 10.3797844,
      "tags": {
        "name": "Byåsen bakeri",
        "shop": "bakery"
      }
    },
    {
      "type": "node",
      "id": 2068607078,
      "lat": 63.3682002,
      "lon": 10.3805578,
      "tags": {
        "name": "Jysk",
        "shop": "curtain"
      }
    },
    {
      "type": "node",
      "id": 2068607083,
      "lat": 63.3643361,
      "lon": 10.3803154,
      "tags": {
        "name": "Maling 1000",
        "shop": "paint"
      }
    },
    {
      "type": "node",
      "id": 2068607098,
      "lat": 63.3630729,
      "lon": 10.3775472,
      "tags": {
        "name": "Sigdal",
        "shop": "kitchen"
      }
    },
    {
      "type": "node",
      "id": 2068607099,
      "lat": 63.3682973,
      "lon": 10.3812022,
      "tags": {
        "name": "Stoff og stil",
        "shop": "fabric"
      }
    },
    {
      "type": "node",
      "id": 2105538644,
      "lat": 63.3986219,
      "lon": 10.3650535,
      "tags": {
        "addr:housenumber": "98b",
        "addr:postcode": "7022",
        "addr:street": "Bøckmanns vei",
        "name": "iPhonREP Trondheim AS",
        "shop": "doityourself",
        "website": "www.iphonerep.no"
      }
    },
    {
      "type": "node",
      "id": 2112026737,
      "lat": 63.4215024,
      "lon": 10.494073,
      "tags": {
        "branch": "Jakobsli",
        "brand": "Coop Prix",
        "email": "coop.prix.jakobsli@coopmidtnorge.no",
        "name": "Coop Prix Jakobsli",
        "opening_hours": "Mo-Fr 07:00-23:00, Sa 08:00-23:00",
        "phone": "+47 40001232",
        "ref:coop": "1809",
        "service:posten": "yes",
        "service:tipping": "yes",
        "shop": "supermarket"
      }
    },
    {
      "type": "node",
      "id": 2165713555,
      "lat": 63.4344928,
      "lon": 10.40399,
      "tags": {
        "addr:city": "Trondheim",
        "addr:housenumber": "1",
        "addr:postcode": "7010",
        "addr:street": "Fjordgata",
        "name": "4Sound",
        "opening_hours": "Mo-Fr 10:00-18:00; Sa 10:00-15:00; Su off",
        "operator": "4SOUND",
        "shop": "music",
        "website": "http://www.4sound.no/trondheim"
      }
    },
    {
      "type": "node",
      "id": 2194784989,
      "lat": 63.4220435,
      "lon": 10.400098,
      "tags": {
        "shop": "laundry"
      }
    },
    {
      "type": "node",
      "id": 2195105232,
      "lat": 63.4217794,
      "lon": 10.4039234,
      "tags": {
        "name": "H. Solli",
        "opening_hours": "Mo-Fr 08:30-16:30; Sa 09:00-13:00",
        "shop": "hairdresser"
      }
    },
    {
      "type": "node",
      "id": 2275990844,
      "lat": 63.4304165,
      "lon": 10.4199958,
      "tags": {
        "branch": "Rosenborg",
        "brand": "Rema 1000",
        "email": "rosenborg@rema.no",
        "name": "Rema 1000 Rosenborg",
        "opening_hours": "Mo-Sa 07:00-23:00, Su 11:00-22:00",
        "operator": "REMA 1000",
        "phone": "+47 73 52 48 86",
        "ref:rema": "230465",
        "shop": "supermarket"
      }
    },
    {
      "type": "node",
      "id": 2275990869,
      "lat": 63.4304813,
      "lon": 10.4199744,
      "tags": {
        "name": "Narvesen Rosenborg",
        "shop": "kiosk"
      }
    },
    {
      "type": "node",
      "id": 2275997766,
      "lat": 63.4306133,
      "lon": 10.4203445,
      "tags": {
        "name": "Blue Box",
        "shop": "beauty"
      }
    },
    {
      "type": "node",
      "id": 2276100378,
      "lat": 63.443105,
      "lon": 10.446801,
      "tags": {
        "branch": "City Lade",
        "brand": "Obs Bygg",
        "email": "obs.bygg.city.lade.informasjon@coopmidtnorge.no",
        "level": "0",
        "name": "Obs Bygg City Lade",
        "opening_hours": "Mo-Fr 07:00-21:00, Sa 08:00-20:00",
        "phone": "+47 40001266",
        "ref:coop": "2345",
        "shop": "doityourself",
        "source": "Coop Norge"
      }
    },
    {
      "type": "node",
      "id": 2281414756,
      "lat": 63.4338537,
      "lon": 10.3978188,
      "tags": {
        "addr:city": "Trondheim",
        "addr:housenumber": "24",
        "addr:postcode": "7011",
        "addr:street": "Olav Tryggvasons gate",
        "name": "VIC CJ",
        "opening_hours": "Mo-Fr 10:00-18:00; Sa 10:00-16:00",
        "shop": "clothes",
        "website": "http://www.vic.no/?menu=45"
      }
    },
    {
      "type": "node",
      "id": 2281414758,
      "lat": 63.4339748,
      "lon": 10.3976981,
      "tags": {
        "name": "Natasja",
        "opening_hours": "Mo-Fr 10:00-18:00; Sa 10:00-16:00",
        "shop": "clothes",
        "website": "http://natasjatrondheim.tumblr.com/"
      }
    },
    {
      "type": "node",
      "id": 2281438086,
      "lat": 63.4367697,
      "lon": 10.4256011,
      "tags": {
        "addr:city": "Trondheim",
        "addr:housenumber": "4A",
        "addr:postcode": "7042",
        "addr:street": "Mellomveien",
        "craft": "dressmaker",
        "name": "Bunadsøm Helens systue",
        "opening_hours": "Mo-Fr 09:00-16:00",
        "phone": "+4790727468",
        "shop": "clothes",
        "website": "http://www.helenssystue.com/"
      }
    },
    {
      "type": "node",
      "id": 2288474219,
      "lat": 63.4343688,
      "lon": 10.4643077,
      "tags": {
        "name": "Hank Sport",
        "service:bicycle:repair": "yes",
        "shop": "bicycle"
      }
    },
    {
      "type": "node",
      "id": 2288474221,
      "lat": 63.4399102,
      "lon": 10.4625857,
      "tags": {
        "name": "G-MAX Trondheim Lade",
        "opening_hours": "Mo-Fr 10:00-20:00; Sa 10:00-18:00",
        "service:bicycle:repair": "yes",
        "service:bicycle:retail": "yes",
        "shop": "sports",
        "website": "http://www.gsport.no/butikker/gmax-lade"
      }
    },
    {
      "type": "node",
      "id": 2288474222,
      "lat": 63.4414247,
      "lon": 10.4587945,
      "tags": {
        "name": "XXL Lade",
        "opening_hours": "Mo-Fr 10:00-20:00; Sa 10:00-18:00",
        "service:bicycle:repair": "yes",
        "service:bicycle:retail": "yes",
        "shop": "sports",
        "website": "http://www.xxl.no/store-finder/trondheim/XXL%20Trondheim,%20Lade"
      }
    },
    {
      "type": "node",
      "id": 2288482885,
      "lat": 63.4314862,
      "lon": 10.3917124,
      "tags": {
        "name": "Axel Bruun",
        "opening_hours": "Mo-Fr 09:00-18:00; Sa 09:00-17:00",
        "phone": "+47 73 53 20 93",
        "service:bicycle:repair": "yes",
        "service:bicycle:retail": "yes",
        "shop": "sports",
        "website": "http://bruun.no/",
        "wheelchair": "no"
      }
    },
    {
      "type": "node",
      "id": 2288482886,
      "lat": 63.4346397,
      "lon": 10.3966373,
      "tags": {
        "name": "Sportsbua",
        "opening_hours": "Mo-Fr 10:00-18:00; Sa 10:00-16:00",
        "phone": "+47 73 808940",
        "service:bicycle:repair": "yes",
        "service:bicycle:retail": "yes",
        "shop": "sports",
        "website": "http://www.sportsbua.no/"
      }
    },
    {
      "type": "node",
      "id": 2288491905,
      "lat": 63.3576566,
      "lon": 10.3742861,
      "tags": {
        "name": "G-Sport Tillertorget",
        "service:bicycle:repair": "yes",
        "service:bicycle:retail": "yes",
        "shop": "sports"
      }
    },
    {
      "type": "node",
      "id": 2288491907,
      "lat": 63.3568605,
      "lon": 10.3738808,
      "tags": {
        "name": "XXL Tiller",
        "opening_hours": "Mo-Fr 10:00-20:00; Sa 10:00-18:00",
        "service:bicycle:repair": "yes",
        "service:bicycle:retail": "yes",
        "shop": "sports",
        "website": "https://www.xxl.no/store-finder/XXL%20Trondheim,%20Tiller"
      }
    },
    {
      "type": "node",
      "id": 2288497306,
      "lat": 63.4345737,
      "lon": 10.4014681,
      "tags": {
        "name": "Elleve",
        "opening_hours": "We-Fr 11:00-17:00; Sa 11:00-15:00",
        "service:bicycle:repair": "yes",
        "service:bicycle:retail": "yes",
        "shop": "bicycle",
        "website": "http://www.e11.no/"
      }
    },
    {
      "type": "node",
      "id": 2296716183,
      "lat": 63.424984,
      "lon": 10.442737,
      "tags": {
        "alt_name": "Vinmonopolet Trondheim, Valentinlyst",
        "branch": "Valentinlyst",
        "brand": "Vinmonopolet",
        "name": "Vinmonopolet Valentinlyst",
        "opening_hours": "Mo-Fr 10:00-18:00, Sa 10:00-15:00",
        "phone": "+47 22 01 50 00",
        "ref:vinmonopolet": "180",
        "shop": "alcohol",
        "website": "https://www.vinmonopolet.no"
      }
    },
    {
      "type": "node",
      "id": 2332949061,
      "lat": 63.426986,
      "lon": 10.369376,
      "tags": {
        "addr:city": "Trondheim",
        "addr:housenumber": "12",
        "addr:postcode": "7018",
        "addr:street": "Osloveien",
        "branch": "Ilamat",
        "brand": "Joker",
        "email": "joker.ilamat@joker.no",
        "name": "Joker Ilamat",
        "old_name": "Ila mat",
        "opening_hours": "Mo-Th 08:00-21:00, Fr 09:00-21:00, Sa 09:00-18:00",
        "operator": "Joker",
        "phone": "+47 73529229",
        "ref:norgesgruppen": "77076",
        "service:posten": "yes",
        "service:tipping": "yes",
        "shop": "supermarket",
        "website": "https://joker.no/Finn-butikk/Joker-Ilamat/"
      }
    },
    {
      "type": "node",
      "id": 2340408486,
      "lat": 63.3740666,
      "lon": 10.3456619,
      "tags": {
        "name": "Europris",
        "opening_hours": "Mo-Fr 09:00-20:00, Sa 09:00-18:00",
        "shop": "supermarket",
        "wheelchair": "yes"
      }
    },
    {
      "type": "node",
      "id": 2396212690,
      "lat": 63.4413059,
      "lon": 10.4602891,
      "tags": {
        "name": "Elkjøp Lade Megastore",
        "opening_hours": "Mo-Fr 10:00-20:00; Sa 10:00-18:00",
        "shop": "electronics",
        "website": "http://www.elkjop.no/INTERSHOP/web/WFS/store-elkjop-Site/no_NO/-/NOK/ViewStoreFinder-Start?mapStore=fKQKeQuvLvcAAAEoLPE7Uj8l"
      }
    },
    {
      "type": "node",
      "id": 2413561338,
      "lat": 63.4280179,
      "lon": 10.4026963,
      "tags": {
        "branch": "Øvre Bakkland",
        "brand": "7-Eleven",
        "email": "ovre_bakklandet.711no7103@7-eleven.no",
        "name": "7-Eleven Øvre Bakkland",
        "opening_hours": "Mo-Th 07:00-02:00, Fr 07:00-03:00, Sa 08:00-03:00, Su 08:00-24:00",
        "phone": "+47 73531860",
        "ref:7eleven": "628",
        "shop": "convenience"
      }
    },
    {
      "type": "node",
      "id": 2446449906,
      "lat": 63.433178,
      "lon": 10.402659,
      "tags": {
        "addr:city": "Trondheim",
        "addr:housenumber": "3",
        "addr:postcode": "7011",
        "addr:street": "Olav Tryggvasons gate",
        "name": "Skandinavisk Høyfjellsutstyr",
        "opening_hours": "Mo-Fr 10:00-18:00; Sa 10:00-15:00",
        "shop": "outdoor",
        "wheelchair": "yes"
      }
    },
    {
      "type": "node",
      "id": 2453488961,
      "lat": 63.4356838,
      "lon": 10.4139784,
      "tags": {
        "name": "Cowboys & Angels",
        "opening_hours": "Mo-Fr 10:00-18:00, Sa 10:00-15:00",
        "shop": "hairdresser"
      }
    },
    {
      "type": "node",
      "id": 2498375798,
      "lat": 63.434044,
      "lon": 10.503594,
      "tags": {
        "branch": "Grilstad",
        "brand": "Extra",
        "email": "extra.grilstad@coopmidtnorge.no",
        "name": "Extra Grilstad",
        "opening_hours": "Mo-Fr 07:00-23:00, Sa 08:00-23:00, Su 11:00-22:00",
        "phone": "+47 40001278",
        "ref:coop": "2502",
        "service:posten": "yes",
        "service:postnord": "yes",
        "service:tipping": "yes",
        "shop": "supermarket",
        "website": "http://www.trondos.no/trondos/butikker/extra/grilstad.php",
        "wheelchair": "yes"
      }
    },
    {
      "type": "node",
      "id": 2498375802,
      "lat": 63.4341948,
      "lon": 10.5030177,
      "tags": {
        "name": "H2O",
        "shop": "hairdresser"
      }
    },
    {
      "type": "node",
      "id": 2579173987,
      "lat": 63.4312955,
      "lon": 10.3898047,
      "tags": {
        "addr:city": "Trondheim",
        "addr:housenumber": "6",
        "addr:postcode": "7012",
        "addr:street": "St Olavs gate",
        "name": "Grønn Spire",
        "opening_hours": "Mo-Fr 10:00-17:00; Th 10:00-18:00; Sa 09:00-14:00",
        "shop": "hairdresser",
        "website": "http://gronnspire.no/",
        "wheelchair": "no"
      }
    },
    {
      "type": "node",
      "id": 2586616731,
      "lat": 63.435362,
      "lon": 10.412651,
      "tags": {
        "alt_name": "Vinmonopolet Trondheim, Nedre Elvehavn",
        "branch": "Nedre Elvehavn",
        "brand": "Vinmonopolet",
        "name": "Vinmonopolet Nedre Elvehavn",
        "opening_hours": "Mo-Fr 10:00-18:00, Sa 10:00-15:00",
        "phone": "+47 22 01 50 00",
        "ref:vinmonopolet": "322",
        "shop": "alcohol",
        "website": "https://www.vinmonopolet.no"
      }
    },
    {
      "type": "node",
      "id": 2586616732,
      "lat": 63.4350957,
      "lon": 10.4132249,
      "tags": {
        "name": "Sjakk Matt",
        "shop": "hairdresser"
      }
    },
    {
      "type": "node",
      "id": 2586616733,
      "lat": 63.4350837,
      "lon": 10.4114761,
      "tags": {
        "level": "1",
        "name": "Clas Ohlson",
        "opening_hours": "Mo-Fr 09:00-21:00; Sa 09:00-18:00",
        "shop": "doityourself"
      }
    },
    {
      "type": "node",
      "id": 2671914147,
      "lat": 63.4299289,
      "lon": 10.3684505,
      "tags": {
        "addr:city": "Trondheim",
        "addr:housenumber": "1",
        "addr:postcode": "7018",
        "addr:street": "Kleists gate",
        "branch": "Ila",
        "brand": "Bunnpris",
        "email": "bpila@bunnpris.no",
        "name": "Bunnpris Ila",
        "opening_hours": "Mo-Fr 08:00-23:00, Sa 09:00-22:00, Su 10:00-22:00",
        "phone": "+47 73527778",
        "ref:bunnpris": "13",
        "service:postnord": "yes",
        "shop": "supermarket",
        "website": "http://bunnpris.no/butikker/bunnpris-ila"
      }
    },
    {
      "type": "node",
      "id": 2698855834,
      "lat": 63.3595629,
      "lon": 10.3755105,
      "tags": {
        "branch": "Tiller",
        "brand": "Rema 1000",
        "email": "tiller@rema.no",
        "name": "Rema 1000 Tiller",
        "opening_hours": "Mo-Sa 07:00-23:00",
        "phone": "+47 72 88 08 92",
        "ref:rema": "275012",
        "service:posten": "yes",
        "shop": "supermarket"
      }
    },
    {
      "type": "node",
      "id": 2905986801,
      "lat": 63.4154127,
      "lon": 10.3990308,
      "tags": {
        "branch": "Elgeseter",
        "brand": "Rema 1000",
        "email": "elgeseter@rema.no",
        "name": "Rema 1000 Elgeseter",
        "opening_hours": "Mo-Sa 07:00-23:00",
        "operator": "REMA 1000",
        "phone": "+47 97 08 26 90",
        "ref:rema": "1968912",
        "shop": "supermarket"
      }
    },
    {
      "type": "node",
      "id": 2934040874,
      "lat": 63.4306532,
      "lon": 10.3989705,
      "tags": {
        "name": "Mester Grønn Mercursenteret",
        "opening_hours": "Mo-Fr 10:00-20:00; Sa 10:00-18:00",
        "operator": "Mester Grønn",
        "shop": "florist",
        "website": "https://www.mestergronn.no/blomsterbutikk/trondheim/mercursenteret/"
      }
    },
    {
      "type": "node",
      "id": 2945625255,
      "lat": 63.4306604,
      "lon": 10.3984574,
      "tags": {
        "name": "Narvesen",
        "opening_hours": "Mo-Fr 10:00-20:00; Sa 10:00-18:00",
        "shop": "kiosk"
      }
    },
    {
      "type": "node",
      "id": 2952475340,
      "lat": 63.4473624,
      "lon": 10.4436014,
      "tags": {
        "addr:city": "Trondheim",
        "addr:housenumber": "4",
        "addr:postcode": "7040",
        "addr:street": "Østmarkveien",
        "name": "Bygger'n Lade",
        "opening_hours": "Mo-Fr 06:30-20:00, Sa 10:00-16:00",
        "shop": "hardware"
      }
    },
    {
      "type": "node",
      "id": 2952478228,
      "lat": 63.4340418,
      "lon": 10.4570817,
      "tags": {
        "name": "Nidars fabrikkutsalg",
        "opening_hours": "Tu-Fr 10:00-18:00; Sa 10:00-15:00; Mo,Su off",
        "shop": "confectionery"
      }
    },
    {
      "type": "node",
      "id": 2957446441,
      "lat": 63.4293751,
      "lon": 10.3927861,
      "tags": {
        "addr:city": "Trondheim",
        "addr:housenumber": "11",
        "addr:postcode": "7013",
        "addr:street": "Prinsens gate",
        "level": "1",
        "name": "Antoniette",
        "opening_hours": "Mo-Fr 09:00-20:00; Sa 09:00-18:00; Dec 1-24 Su 14:00-19:00; Dec 7-24 Sa 09:00-20:00; Dec 12-22 Mo-Fr 09:00-21:00; Dec 24 13:00+ off; Dec 25-26 off; Dec 27-30 18:00+ off; Dec 31 16:00+ off; Jan 1 off",
        "shop": "hairdresser",
        "website": "http://www.antoniette.no/"
      }
    },
    {
      "type": "node",
      "id": 2957446473,
      "lat": 63.4294669,
      "lon": 10.3927652,
      "tags": {
        "addr:city": "Trondheim",
        "addr:housenumber": "13",
        "addr:postcode": "7013",
        "addr:street": "Prinsens gate",
        "level": "1",
        "name": "Life Solsikkehuset",
        "shop": "beauty",
        "website": "http://www.life.no/butikker/sor-trondelag/life-solsikkehuset"
      }
    },
    {
      "type": "node",
      "id": 2957446673,
      "lat": 63.4331724,
      "lon": 10.3989058,
      "tags": {
        "addr:city": "Trondheim",
        "addr:housenumber": "19",
        "addr:postcode": "7011",
        "addr:street": "Olav Tryggvasons gate",
        "name": "Livid Jeans",
        "shop": "fashion",
        "website": "http://www.lividjeans.com"
      }
    },
    {
      "type": "node",
      "id": 2957446675,
      "lat": 63.4296489,
      "lon": 10.3927,
      "tags": {
        "addr:city": "Trondheim",
        "addr:housenumber": "19",
        "addr:postcode": "7013",
        "addr:street": "Prinsens gate",
        "level": "1",
        "name": "Bianco Footwear",
        "opening_hours": "Mo-Fr 09:00-20:00; Sa 10:00-18:00",
        "shop": "shoes",
        "website": "http://www.bianco.no/"
      }
    },
    {
      "type": "node",
      "id": 2957446741,
      "lat": 63.4297409,
      "lon": 10.3926737,
      "tags": {
        "addr:city": "Trondheim",
        "addr:housenumber": "21",
        "addr:postcode": "7013",
        "addr:street": "Prinsens gate",
        "level": "1",
        "name": "Elin Aune",
        "opening_hours": "Mo-Fr 09:00-20:00; Sa 09:00-18:00; Dec 1-24 Su 14:00-19:00; Dec 7-24 Sa 09:00-20:00; Dec 12-22 Mo-Fr 09:00-21:00; Dec 24 13:00+ off; Dec 25-26 off; Dec 27-30 18:00+ off; Dec 31 16:00+ off; Jan 1 off",
        "shop": "houseware",
        "website": "http://www.elinaune.no/"
      }
    },
    {
      "type": "node",
      "id": 2957447129,
      "lat": 63.4303629,
      "lon": 10.3937162,
      "tags": {
        "addr:city": "Trondheim",
        "addr:housenumber": "9",
        "addr:postcode": "7013",
        "addr:street": "Kongens gate",
        "email": "trondheim@eyefactory.no",
        "name": "Eye Factory",
        "opening_hours": "Mo-Fr 09:00-20:00",
        "operator": "Optiker",
        "payment:mastercard": "yes",
        "payment:visa": "yes",
        "phone": "+47 458 70 611",
        "shop": "optician",
        "website": "https://eyefactory.no/Butikker/trondheim-torg/"
      }
    },
    {
      "type": "node",
      "id": 2958729771,
      "lat": 63.3562969,
      "lon": 10.3760408,
      "tags": {
        "addr:city": "Tiller",
        "addr:housenumber": "8",
        "addr:postcode": "7075",
        "addr:street": "Ivar Lykkes veg",
        "name": "Lefdal Tiller",
        "opening_hours": "Mo-Fr 10:00-21:00; Sa 10:00-18:00",
        "operator": "Lefdal",
        "shop": "electronics",
        "website": "http://www.lefdal.com/INTERSHOP/web/WFS/store-lefdal-Site/no_NO/-/NOK/ViewStoreFinder-Start?mapStore=dHEKeQuvTlkAAAEoOmI7Uj8R"
      }
    },
    {
      "type": "node",
      "id": 2958731394,
      "lat": 63.4370207,
      "lon": 10.4341325,
      "tags": {
        "addr:city": "Trondheim",
        "addr:housenumber": "88",
        "addr:postcode": "7067",
        "addr:street": "Innherredsveien",
        "name": "Stiluett frisør",
        "opening_hours": "Mo-Fr 09:00-18:00; Sa 10:00-16:00",
        "phone": "73 53 30 50",
        "shop": "hairdresser",
        "website": "http://stiluett.no/"
      }
    },
    {
      "type": "node",
      "id": 2962728714,
      "lat": 63.4242846,
      "lon": 10.44246,
      "tags": {
        "name": "Brillehuset Synsam Valentinlyst",
        "shop": "optician"
      }
    },
    {
      "type": "node",
      "id": 2962728715,
      "lat": 63.42437,
      "lon": 10.4428083,
      "tags": {
        "name": "MX Sport",
        "shop": "sports"
      }
    },
    {
      "type": "node",
      "id": 2962728716,
      "lat": 63.424323,
      "lon": 10.441186,
      "tags": {
        "name": "Tropehagen Zoo",
        "shop": "pet"
      }
    },
    {
      "type": "node",
      "id": 2968030050,
      "lat": 63.4342256,
      "lon": 10.415051,
      "tags": {
        "branch": "Møllenberg",
        "brand": "Rema 1000",
        "email": "mollenberg@rema.no",
        "name": "Rema 1000 Møllenberg",
        "opening_hours": "Mo-Sa 07:00-23:00",
        "phone": "+47 73 53 12 12",
        "ref:rema": "1544970",
        "shop": "supermarket"
      }
    },
    {
      "type": "node",
      "id": 2968030051,
      "lat": 63.4405228,
      "lon": 10.4041417,
      "tags": {
        "addr:city": "Trondheim",
        "addr:housenumber": "7",
        "addr:postcode": "7010",
        "addr:street": "havnegata",
        "branch": "Pirsenteret",
        "brand": "Rema 1000",
        "email": "pirsenteret@rema.no",
        "name": "Rema 1000 Pirsenteret",
        "opening_hours": "Mo-Fr 06:00-20:00, Sa 09:00-18:00",
        "phone": "+47 73 51 45 10",
        "ref:rema": "1544528",
        "shop": "supermarket",
        "wheelchair": "yes"
      }
    },
    {
      "type": "node",
      "id": 2968031711,
      "lat": 63.3985601,
      "lon": 10.4036744,
      "tags": {
        "addr:city": "Trondheim",
        "addr:housenumber": "2",
        "addr:postcode": "7037",
        "addr:street": "Sluppenvegen",
        "branch": "Nidarvoll",
        "brand": "Rema 1000",
        "email": "nidarvoll@rema.no",
        "name": "Rema 1000 Nidarvoll",
        "opening_hours": "Mo-Sa 07:00-23:00, Su 11:00-22:00",
        "phone": "+47 73 57 45 15",
        "ref:rema": "1664641",
        "shop": "supermarket"
      }
    },
    {
      "type": "node",
      "id": 2993892277,
      "lat": 63.4294978,
      "lon": 10.3690258,
      "tags": {
        "name": "Agaton Sax",
        "opening_hours": "Tu, Fr 09:00-17:00; We 09:00-18:00; Th 10:00-18:00",
        "shop": "hairdresser"
      }
    },
    {
      "type": "node",
      "id": 3004633896,
      "lat": 63.4097117,
      "lon": 10.4181013,
      "tags": {
        "branch": "Nardobakken",
        "brand": "Kiwi",
        "email": "kiwi.nardobakken@kiwi.no",
        "name": "Kiwi Nardobakken",
        "opening_hours": "Mo-Sa 07:00-23:00",
        "phone": "+47 73938031",
        "ref:norgesgruppen": "3530578",
        "shop": "supermarket"
      }
    },
    {
      "type": "node",
      "id": 3039410655,
      "lat": 63.4207954,
      "lon": 10.4639492,
      "tags": {
        "name": "Skeidar",
        "shop": "furniture"
      }
    },
    {
      "type": "node",
      "id": 3052351983,
      "lat": 63.4340733,
      "lon": 10.3936259,
      "tags": {
        "name": "Agaton Sax Midtbyen",
        "opening_hours": "Mo-Fr 09:00-17:00; Sa 10:00-15:00",
        "shop": "hairdresser",
        "website": "http://agatonsax.no/"
      }
    },
    {
      "type": "node",
      "id": 3052351984,
      "lat": 63.4347981,
      "lon": 10.3983058,
      "tags": {
        "name": "Agdars Sportsfiske",
        "opening_hours": "Mo-Fr 09:30-17:00; Sa 10:00-15:00",
        "shop": "fishing",
        "website": "http://www.agdars.no/"
      }
    },
    {
      "type": "node",
      "id": 3052351985,
      "lat": 63.4331686,
      "lon": 10.3917723,
      "tags": {
        "name": "Pilus",
        "opening_hours": "Mo-Fr 10:00-17:00; Sa 10:00-14:00",
        "shop": "hairdresser",
        "website": "https://pilus.no/"
      }
    },
    {
      "type": "node",
      "id": 3052351986,
      "lat": 63.4349215,
      "lon": 10.400455,
      "tags": {
        "name": "Antikvitetshuset Tordenskjold",
        "opening_hours": "Mo-Fr 10:15-17:00, Sa 10:00-16:00",
        "shop": "second_hand"
      }
    },
    {
      "type": "node",
      "id": 3052351987,
      "lat": 63.434911,
      "lon": 10.4017057,
      "tags": {
        "name": "Industri & Marine-Diesel",
        "opening_hours": "Mo-Fr 09:00-16:30; Sa 10:00-14:00",
        "shop": "boat",
        "website": "http://imd.no/"
      }
    },
    {
      "type": "node",
      "id": 3052351989,
      "lat": 63.4347273,
      "lon": 10.3980618,
      "tags": {
        "name": "Blåsmo Musikk",
        "opening_hours": "Mo-Fr 10:00-16:30; Th 10:00-17:00; Sa 10:00-13:00",
        "shop": "musical_instrument",
        "website": "http://blaasmomusikk.no/"
      }
    },
    {
      "type": "node",
      "id": 3052351991,
      "lat": 63.4346874,
      "lon": 10.3977074,
      "tags": {
        "name": "Sykkelpikene",
        "opening_hours": "Fr 09:00-17:00; Sa 10:00-15:00",
        "shop": "bicycle",
        "website": "http://www.sykkelpikene.no/"
      }
    },
    {
      "type": "node",
      "id": 3052351993,
      "lat": 63.4347257,
      "lon": 10.3982202,
      "tags": {
        "name": "Nidaros Data",
        "opening_hours": "Mo-Sa 10:00-18:00",
        "operator": "Digital Impuls",
        "phone": "73518800",
        "shop": "computer",
        "website": "http://www.nidarosdata.no/"
      }
    },
    {
      "type": "node",
      "id": 3052351996,
      "lat": 63.4347905,
      "lon": 10.3987697,
      "tags": {
        "name": "Falkanger Sko Den Grønne Brygge",
        "opening_hours": "Mo-Sa 09:00-18:00",
        "shop": "shoes",
        "website": "http://www.falkanger.no/"
      }
    },
    {
      "type": "node",
      "id": 3052351998,
      "lat": 63.4347808,
      "lon": 10.3989845,
      "tags": {
        "brand": "Fretex",
        "name": "Fretex Fjordgata",
        "opening_hours": "Mo-Fr 10:00-17:00; Th 10:00-18:00; Sa 10:00-16:00",
        "phone": "+47 73503940",
        "ref:fretex": "117",
        "shop": "charity",
        "website": "http://www.fretex.no/butikker-og-salg/finn-naermeste-butikk/midt-norge/trondheim/fjordgata-40"
      }
    },
    {
      "type": "node",
      "id": 3052351999,
      "lat": 63.4348112,
      "lon": 10.3993103,
      "tags": {
        "name": "Gardinbrygga",
        "opening_hours": "Mo-We,Fr 10:00-17:00, Th 10:00-18:00, Sa 10:00-15:00",
        "shop": "furniture"
      }
    },
    {
      "type": "node",
      "id": 3052352000,
      "lat": 63.4346089,
      "lon": 10.3961224,
      "tags": {
        "name": "Garnhuset",
        "opening_hours": "Mo-Fr 10:00-17:00; Sa 10:00-16:00",
        "shop": "fabric",
        "website": "https://www.facebook.com/GarnhusetTrondheim"
      }
    },
    {
      "type": "node",
      "id": 3052352008,
      "lat": 63.4349061,
      "lon": 10.4011989,
      "tags": {
        "name": "Nøstebarn",
        "opening_hours": "Mo-Fr 10:00-17:00; Th 10:00-19:00; Sa 10:00-16:00",
        "shop": "clothes",
        "website": "http://nostebarn.no/"
      }
    },
    {
      "type": "node",
      "id": 3052352009,
      "lat": 63.4347167,
      "lon": 10.3978933,
      "tags": {
        "name": "Panduro Hobby",
        "opening_hours": "Mo-Sa 10:00-18:00",
        "shop": "craft",
        "website": "http://www.pandurohobby.no/"
      }
    },
    {
      "type": "node",
      "id": 3052352010,
      "lat": 63.4337796,
      "lon": 10.3923889,
      "tags": {
        "name": "Ravnkloa fisk og skalldyr",
        "opening_hours": "Mo-Fr 10:00-17:00; Sa 10:00-16:00",
        "shop": "seafood",
        "website": "http://www.ravnkloa.no/"
      }
    },
    {
      "type": "node",
      "id": 3052352012,
      "lat": 63.4343957,
      "lon": 10.3947876,
      "tags": {
        "name": "Sengemakeriet",
        "opening_hours": "Mo-Fr 10:00-18:00; Sa 10:00-16:00",
        "shop": "furniture",
        "website": "http://www.sengemakeriet.com/"
      }
    },
    {
      "type": "node",
      "id": 3052352013,
      "lat": 63.4348507,
      "lon": 10.3998086,
      "tags": {
        "name": "Spaceworld + Soundgarden",
        "opening_hours": "Mo-Fr 11:00-17:00; Th 11:00-19:00; Sa 10:00-15:00",
        "shop": "hifi",
        "website": "http://www.soundgarden.no/"
      }
    },
    {
      "type": "node",
      "id": 3052352018,
      "lat": 63.4316555,
      "lon": 10.3848404,
      "tags": {
        "addr:city": "Trondheim",
        "addr:housenumber": "30",
        "addr:postcode": "7012",
        "addr:street": "Sandgata",
        "name": "Trondheim Turistforening",
        "opening_hours": "Mo-Fr 10:00-17:00; Th 10:00-18:00; Sa 10:00-15:00",
        "operator": "Den Norske Turistforening",
        "shop": "outdoor",
        "website": "http://www.tt.no/"
      }
    },
    {
      "type": "node",
      "id": 3054450111,
      "lat": 63.4318408,
      "lon": 10.3877321,
      "tags": {
        "name": "Rammeverkstedet",
        "shop": "frame",
        "website": "http://www.rammeverkstedet.no/"
      }
    },
    {
      "type": "node",
      "id": 3054450112,
      "lat": 63.4315881,
      "lon": 10.3865941,
      "tags": {
        "name": "Trondheim Sysenter",
        "shop": "sewing_machines",
        "website": "http://www.trondheimsysenter.no/"
      }
    },
    {
      "type": "node",
      "id": 3056289074,
      "lat": 63.434203,
      "lon": 10.3952262,
      "tags": {
        "name": "Athina Frisør & Velvære",
        "shop": "hairdresser",
        "website": "https://www.facebook.com/pages/Athina-Fris%C3%B8r-Velv%C3%A6re/338789627940"
      }
    },
    {
      "type": "node",
      "id": 3056289075,
      "lat": 63.4344352,
      "lon": 10.3982988,
      "tags": {
        "name": "Badebutikken",
        "shop": "bathroom_furnishing",
        "website": "http://baderingen.no/badebutikken-as/"
      }
    },
    {
      "type": "node",
      "id": 3056289076,
      "lat": 63.4346229,
      "lon": 10.4018198,
      "tags": {
        "name": "Bakke Brygg",
        "shop": "beer_production",
        "website": "http://bakkebrygg.no/"
      }
    },
    {
      "type": "node",
      "id": 3056289078,
      "lat": 63.4290461,
      "lon": 10.3910868,
      "tags": {
        "name": "Blå Lagune",
        "shop": "beauty",
        "website": "http://www.blaalagune.no/"
      }
    },
    {
      "type": "node",
      "id": 3056289079,
      "lat": 63.4339716,
      "lon": 10.3942835,
      "tags": {
        "name": "Broderisenteret",
        "shop": "fabric",
        "website": "http://www.broderisenteret.no/"
      }
    },
    {
      "type": "node",
      "id": 3056289083,
      "lat": 63.4330404,
      "lon": 10.3924797,
      "tags": {
        "name": "Extreme Fitness Store",
        "shop": "sports",
        "website": "http://www.extremefitness.no/"
      }
    },
    {
      "type": "node",
      "id": 3056289084,
      "lat": 63.4334267,
      "lon": 10.3938771,
      "tags": {
        "name": "Gullgalleriet",
        "shop": "jewelry",
        "website": "https://www.facebook.com/pages/Gullgalleriet-As/176568519062180",
        "wheelchair": "no"
      }
    },
    {
      "type": "node",
      "id": 3056289087,
      "lat": 63.4344924,
      "lon": 10.3989671,
      "tags": {
        "name": "Rom til rom",
        "shop": "furniture",
        "website": "http://www.romtilrom.no/"
      }
    },
    {
      "type": "node",
      "id": 3056289088,
      "lat": 63.4343096,
      "lon": 10.3957964,
      "tags": {
        "name": "Skibs- & Fiskeriutstyr",
        "shop": "boat",
        "website": "http://www.skibsogfiskeriutstyr.no/"
      }
    },
    {
      "type": "node",
      "id": 3056289089,
      "lat": 63.433041,
      "lon": 10.3926398,
      "tags": {
        "name": "Thevenin",
        "shop": "computer",
        "website": "http://www.thevenin.no/"
      }
    },
    {
      "type": "node",
      "id": 3056289091,
      "lat": 63.4346179,
      "lon": 10.4027756,
      "tags": {
        "name": "Walhalla",
        "shop": "speciality",
        "website": "http://www.walhalla.no/"
      }
    },
    {
      "type": "node",
      "id": 3060093859,
      "lat": 63.4344915,
      "lon": 10.3987301,
      "tags": {
        "name": "Enten Eller frisør",
        "shop": "hairdresser",
        "website": "http://www.enten-eller.no/"
      }
    },
    {
      "type": "node",
      "id": 3060093860,
      "lat": 63.4346248,
      "lon": 10.3960043,
      "tags": {
        "name": "Freaks Tattoo",
        "shop": "tattoo",
        "website": "http://www.freakstattoo.no/"
      }
    },
    {
      "type": "node",
      "id": 3060093865,
      "lat": 63.4316241,
      "lon": 10.4022043,
      "tags": {
        "name": "Tinkabelle Dancewear",
        "shop": "boutique",
        "website": "https://tinkabelle.no/"
      }
    },
    {
      "type": "node",
      "id": 3060093866,
      "lat": 63.4333386,
      "lon": 10.3930357,
      "tags": {
        "alt_name": "Simon Petersen AS",
        "name": "Simon Sko",
        "shop": "shoes",
        "website": "https://www.facebook.com/pages/Simon-Petersen-as/342919129160109",
        "wheelchair": "no"
      }
    },
    {
      "type": "node",
      "id": 3060093867,
      "lat": 63.4346318,
      "lon": 10.3962309,
      "tags": {
        "alt_name": "Gaia",
        "name": "Krogstad",
        "office": "lawyer",
        "shop": "convenience",
        "website": "https://www.facebook.com/pages/Y-S-Afro-Beauty-Food/382070965137382"
      }
    },
    {
      "type": "node",
      "id": 3070527093,
      "lat": 63.4285843,
      "lon": 10.3663947,
      "tags": {
        "name": "Fiinbeck & Fia",
        "shop": "hairdresser"
      }
    },
    {
      "type": "node",
      "id": 3077808464,
      "lat": 63.4312619,
      "lon": 10.3904207,
      "tags": {
        "alt_name": "Stein Saks Papir",
        "name": "Stein ✂ Papir",
        "opening_hours": "Mo-Sa 10:00-18:00",
        "shop": "hairdresser",
        "website": "https://www.facebook.com/stein.saks.papir.trondheim",
        "wheelchair": "no"
      }
    },
    {
      "type": "node",
      "id": 3080917759,
      "lat": 63.4310027,
      "lon": 10.3905352,
      "tags": {
        "name": "Aftermath Music",
        "opening_hours": "Mo-Fr 12:00-18:00;Sa 12:00-15:30",
        "shop": "music",
        "website": "http://www.aftermath-music.com/"
      }
    },
    {
      "type": "node",
      "id": 3080917760,
      "lat": 63.4315487,
      "lon": 10.389687,
      "tags": {
        "name": "Berge interiør",
        "opening_hours": "Mo-Fr 10:00-17:00; Th 10:00-18:00; Sa 10:00-15:00",
        "shop": "furniture",
        "website": "http://bergeinterior.no",
        "wheelchair": "limited"
      }
    },
    {
      "type": "node",
      "id": 3080917766,
      "lat": 63.4311372,
      "lon": 10.3904696,
      "tags": {
        "name": "Sykepleieartikler",
        "opening_hours": "Mo-Fr 10:00-16:00; Th 10:00-17:00",
        "shop": "medical_supply",
        "website": "http://www.sykepleieartikler.no/"
      }
    },
    {
      "type": "node",
      "id": 3080917767,
      "lat": 63.4314231,
      "lon": 10.3903578,
      "tags": {
        "name": "Trønderfrim",
        "opening_hours": "Mo-Fr 10:00-17:00; Sa 10:00-15:00",
        "shop": "toys",
        "website": "http://www.tronderfrim.no/",
        "wheelchair": "no"
      }
    },
    {
      "type": "node",
      "id": 3080917770,
      "lat": 63.4310406,
      "lon": 10.3905236,
      "tags": {
        "name": "Herrefrisør",
        "opening_hours": "Mo-Fr 08:30-16:00",
        "shop": "hairdresser"
      }
    },
    {
      "type": "node",
      "id": 3097492387,
      "lat": 63.4406791,
      "lon": 10.4622852,
      "tags": {
        "name": "Power",
        "opening_hours": "Mo-Fr 10:00-20:00; Sa 10:00-18:00",
        "shop": "electronics",
        "website": "http://www.expert.no/"
      }
    },
    {
      "type": "node",
      "id": 3097492388,
      "lat": 63.4419918,
      "lon": 10.458537,
      "tags": {
        "branch": "Lade Arena",
        "brand": "Rema 1000",
        "email": "lade.arena@rema.no",
        "name": "Rema 1000 Lade Arena",
        "opening_hours": "Mo-Fr 07:00-23:00, Sa 09:00-21:00",
        "phone": "+47 73 52 11 20",
        "ref:rema": "1555725",
        "shop": "supermarket",
        "website": "http://butikk.rema.no/REMA+1000+Lade+Arena/1555725"
      }
    },
    {
      "type": "node",
      "id": 3097492389,
      "lat": 63.4413709,
      "lon": 10.4583054,
      "tags": {
        "name": "Biltema",
        "opening_hours": "Mo-Fr 08:00-20:00; Sa 09:00-18:00",
        "shop": "doityourself",
        "website": "http://www.biltema.no/no/Varehus/Lade/"
      }
    },
    {
      "type": "node",
      "id": 3097492391,
      "lat": 63.439781,
      "lon": 10.4633321,
      "tags": {
        "name": "Tesla",
        "shop": "car",
        "website": "http://www.teslamotors.com/no_NO/findus#/bounds/63.45691890000001,10.5793655,63.3805535,10.2981588?search=store,service,supercharger&place=trondheim"
      }
    },
    {
      "type": "node",
      "id": 3105374051,
      "lat": 63.433846,
      "lon": 10.5033797,
      "tags": {
        "name": "Lavendel Blomster og Interiør",
        "shop": "florist"
      }
    },
    {
      "type": "node",
      "id": 3105374052,
      "lat": 63.4339241,
      "lon": 10.5025428,
      "tags": {
        "name": "Nille",
        "shop": "variety_store"
      }
    },
    {
      "type": "node",
      "id": 3124111098,
      "lat": 63.4331546,
      "lon": 10.3976057,
      "tags": {
        "name": "Deli de Luca",
        "shop": "kiosk"
      }
    },
    {
      "type": "node",
      "id": 3124117861,
      "lat": 63.4327982,
      "lon": 10.3981447,
      "tags": {
        "name": "Godt Brød",
        "opening_hours": "Mo-Sa 06:00-18:00",
        "shop": "bakery",
        "website": "http://www.godtbrod.no/Bakeverksted/Trondhjem"
      }
    },
    {
      "type": "node",
      "id": 3124188106,
      "lat": 63.4339365,
      "lon": 10.3958312,
      "tags": {
        "name": "Orient - Asiatiske dagligvarer",
        "shop": "convenience"
      }
    },
    {
      "type": "node",
      "id": 3132096053,
      "lat": 63.4298867,
      "lon": 10.3930471,
      "tags": {
        "level": "1",
        "name": "Kicks",
        "opening_hours": "Mo-Fr 09:00-20:00; Sa 09:00-18:00; Dec 1-24 Su 14:00-19:00; Dec 7-24 Sa 09:00-20:00; Dec 12-22 Mo-Fr 09:00-21:00; Dec 24 13:00+ off; Dec 25-26 off; Dec 27-30 18:00+ off; Dec 31 16:00+ off; Jan 1 off",
        "shop": "beauty",
        "website": "http://www.kicks.no/"
      }
    },
    {
      "type": "node",
      "id": 3132098726,
      "lat": 63.4300663,
      "lon": 10.3926812,
      "tags": {
        "level": "1",
        "name": "Vivikes",
        "opening_hours": "Mo-Fr 09:00-20:00; Sa 09:00-18:00; Dec 1-24 Su 14:00-19:00; Dec 7-24 Sa 09:00-20:00; Dec 12-22 Mo-Fr 09:00-21:00; Dec 24 13:00+ off; Dec 25-26 off; Dec 27-30 18:00+ off; Dec 31 16:00+ off; Jan 1 off",
        "shop": "clothes",
        "website": "http://www.vivikes.no/Butikker/Alle-Butikker/Trondheim/Trondheim-Torg1/"
      }
    },
    {
      "type": "node",
      "id": 3132098727,
      "lat": 63.4300621,
      "lon": 10.3930233,
      "tags": {
        "level": "1",
        "name": "Blomstertorget Trondheim",
        "opening_hours": "Mo-Fr 09:00-20:00; Sa 09:00-18:00; Dec 1-24 Su 14:00-19:00; Dec 7-24 Sa 09:00-20:00; Dec 12-22 Mo-Fr 09:00-21:00; Dec 24 13:00+ off; Dec 25-26 off; Dec 27-30 18:00+ off; Dec 31 16:00+ off; Jan 1 off",
        "operator": "Walldén Moum",
        "shop": "florist",
        "website": "http://www.fineblomster.no/",
        "wheelchair": "yes"
      }
    },
    {
      "type": "node",
      "id": 3188681531,
      "lat": 63.4299435,
      "lon": 10.3931119,
      "tags": {
        "level": "3",
        "name": "Clas Ohlson",
        "opening_hours": "Mo-Fr 09:00-20:00;Sa 09:00-18:00",
        "shop": "doityourself",
        "website": "http://www.clasohlson.com/no/view/COStoreLocatorController/showStoreLocator#66"
      }
    },
    {
      "type": "node",
      "id": 3214318857,
      "lat": 63.4320586,
      "lon": 10.3953747,
      "tags": {
        "addr:city": "Trondheim",
        "addr:housenumber": "28",
        "addr:postcode": "7011",
        "addr:street": "Dronningens gate",
        "name": "Te og Kaffehuset",
        "opening_hours": "Mo-We 10:00-17:00, Th,Fr 10:00-18:00, Sa 10:00-16:00",
        "phone": "+47 73 53 42 50",
        "shop": "tea",
        "website": "https://www.teogkaffehuset.no/"
      }
    },
    {
      "type": "node",
      "id": 3225752840,
      "lat": 63.4411272,
      "lon": 10.4589961,
      "tags": {
        "name": "Jysk",
        "opening_hours": "Mo-Fr 10:00-20:00; Sa 10:00-18:00",
        "shop": "hardware",
        "website": "http://jysk.no/butikker#N572"
      }
    },
    {
      "type": "node",
      "id": 3225752841,
      "lat": 63.4415427,
      "lon": 10.4594743,
      "tags": {
        "name": "Kid interiør",
        "opening_hours": "Mo-Fr 10:00-20:00; Sa 10:00-18:00",
        "shop": "interior_decoration",
        "website": "http://butikk.kid.no/Kid+Lade%2C+Trondheim/1658909"
      }
    },
    {
      "type": "node",
      "id": 3225752842,
      "lat": 63.4417359,
      "lon": 10.4595173,
      "tags": {
        "name": "Living",
        "opening_hours": "Mo-Fr 10:00-20:00; Sa 10:00-18:00",
        "shop": "furniture",
        "website": "http://www.skeidar.no/varehus/trondheim-lade/"
      }
    },
    {
      "type": "node",
      "id": 3225752843,
      "lat": 63.4409228,
      "lon": 10.4613324,
      "tags": {
        "name": "Møbelringen Lade",
        "opening_hours": "Mo-Fr 10:00-20:00; Sa 10:00-16:00",
        "shop": "furniture",
        "website": "http://www.mobelringen.no/"
      }
    },
    {
      "type": "node",
      "id": 3230730623,
      "lat": 63.4400386,
      "lon": 10.4624383,
      "tags": {
        "name": "ABC Fritid Lade",
        "opening_hours": "Mo-Fr 10:00-20:00; Sa 10:00-18:00",
        "shop": "hunting",
        "website": "http://www.abcfritid.no/lade?id=923"
      }
    },
    {
      "type": "node",
      "id": 3230730624,
      "lat": 63.4405476,
      "lon": 10.4630632,
      "tags": {
        "name": "Barnas Hus Lade",
        "opening_hours": "Mo-Fr 09:00-20:00; Sa 10:00-18:00",
        "shop": "baby_goods",
        "website": "http://butikk.barnashus.no/Barnas+Hus+Lade/1406828"
      }
    },
    {
      "type": "node",
      "id": 3230730626,
      "lat": 63.4403462,
      "lon": 10.462408,
      "tags": {
        "name": "Christiania Belysning",
        "opening_hours": "Mo-Fr 10:00-20:00; Sa 10:00-18:00",
        "shop": "furniture",
        "website": "http://www.christiania-belysning.no/no/vare_butikker/sor-trondelag/"
      }
    },
    {
      "type": "node",
      "id": 3230730627,
      "lat": 63.4407393,
      "lon": 10.4625028,
      "tags": {
        "name": "Clas Ohlson Lade Arena",
        "opening_hours": "Mo-Fr 09:00-21:00; Sa 10:00-18:00",
        "shop": "doityourself",
        "website": "http://www.clasohlson.com/no/view/COStoreLocatorController/showStoreLocator#65"
      }
    },
    {
      "type": "node",
      "id": 3230730629,
      "lat": 63.4404052,
      "lon": 10.4623956,
      "tags": {
        "name": "Henne & Han",
        "opening_hours": "Mo-Fr 10:00-20:00; Sa 10:00-18:00",
        "shop": "beauty",
        "website": "http://www.henneoghan.no/"
      }
    },
    {
      "type": "node",
      "id": 3230730630,
      "lat": 63.4398778,
      "lon": 10.462993,
      "tags": {
        "name": "Hund som Hobby",
        "opening_hours": "Mo-Fr 10:00-20:00; Sa 10:00-18:00",
        "shop": "pet",
        "website": "https://hundsomhobby.no/"
      }
    },
    {
      "type": "node",
      "id": 3230730631,
      "lat": 63.440431,
      "lon": 10.4642875,
      "tags": {
        "name": "Lade Allé Hudklinikk",
        "opening_hours": "Mo,Fr 09:00-15:00; Tu,Th 09:00-19:00; We 12:00-19:00",
        "shop": "beauty",
        "website": "http://www.ladehud.no/"
      }
    },
    {
      "type": "node",
      "id": 3230730632,
      "lat": 63.4401708,
      "lon": 10.4620542,
      "tags": {
        "name": "TAM Lade",
        "opening_hours": "Mo-Fr 10:00-20:00; Sa 10:00-18:00",
        "shop": "pet",
        "website": "http://www.tropehagen.no/default.aspx?pageId=10"
      }
    },
    {
      "type": "node",
      "id": 3230730633,
      "lat": 63.44048,
      "lon": 10.4628299,
      "tags": {
        "name": "Torshov Bilrekvisita",
        "opening_hours": "Mo-Fr 10:00-20:00; Sa 10:00-18:00",
        "shop": "car_parts"
      }
    },
    {
      "type": "node",
      "id": 3230730634,
      "lat": 63.4403412,
      "lon": 10.462295,
      "tags": {
        "name": "Urban Haircut",
        "opening_hours": "Mo-Fr 10:00-20:00; Sa 10:00-18:00",
        "shop": "hairdresser",
        "website": "http://www.urbanhair.no/"
      }
    },
    {
      "type": "node",
      "id": 3230730635,
      "lat": 63.4402382,
      "lon": 10.4625438,
      "tags": {
        "name": "Yes! vi leker",
        "opening_hours": "Mo-Fr 10:00-20:00; Sa 10:00-18:00",
        "shop": "toys",
        "website": "http://www.yesvileker.no/default.aspx?Cat=25&Id=408"
      }
    },
    {
      "type": "node",
      "id": 3239607047,
      "lat": 63.4302069,
      "lon": 10.3930354,
      "tags": {
        "level": "2",
        "name": "Accessorize",
        "shop": "boutique",
        "website": "http://accessorize.no/"
      }
    },
    {
      "type": "node",
      "id": 3239607048,
      "lat": 63.4295652,
      "lon": 10.3928368,
      "tags": {
        "level": "1",
        "name": "Black & White Sweet Heaven",
        "shop": "deli",
        "website": "http://www.blackandwhiteshop.no/"
      }
    },
    {
      "type": "node",
      "id": 3239607049,
      "lat": 63.4303882,
      "lon": 10.3931597,
      "tags": {
        "level": "3",
        "name": "Dressmann",
        "opening_hours": "Mo-Fr 09:00-20:00; Sa 09:00-18:00; Dec 1-24 Su 14:00-19:00; Dec 7-24 Sa 09:00-20:00; Dec 12-22 Mo-Fr 09:00-21:00; Dec 24 13:00+ off; Dec 25-26 off; Dec 27-30 18:00+ off; Dec 31 16:00+ off; Jan 1 off",
        "shop": "clothes",
        "website": "https://dressmann.com/no/bedriftssider/butikker/finn-butikk/Norway/189/"
      }
    },
    {
      "type": "node",
      "id": 3239607050,
      "lat": 63.4300586,
      "lon": 10.393741,
      "tags": {
        "level": "3",
        "name": "G-Sport",
        "opening_hours": "Mo-Fr 09:00-20:00; Sa 09:00-18:00; Dec 1-24 Su 14:00-19:00; Dec 7-24 Sa 09:00-20:00; Dec 12-22 Mo-Fr 09:00-21:00; Dec 24 13:00+ off; Dec 25-26 off; Dec 27-30 18:00+ off; Dec 31 16:00+ off; Jan 1 off",
        "shop": "sports",
        "website": "http://www.gsport.no/butikker/g-sport-trondheim-torg"
      }
    },
    {
      "type": "node",
      "id": 3239607053,
      "lat": 63.4294064,
      "lon": 10.3928533,
      "tags": {
        "level": "2",
        "name": "Prinsen Solstue",
        "shop": "beauty",
        "website": "http://www.trondheimtorg.no/handle/velvaere/prinsen+solstue.html"
      }
    },